STATE,CWA,COUNTYNAME,FIPS,TIME_ZONE,FE_AREA,LON,LAT
FL,TBW,Charlotte,12015,E,sw,-81.894,26.9069
AK,AFC,Aleutians East,2013,A,,-161.863,55.4039
AK,AFC,Aleutians West,2016,Ah,,-111.1392,52.8883
AK,AFC,Lake and Peninsula,2164,A,,-156.1833,58.6478
AK,AFCAFG,Denali,2068,A,,-150.0089,63.6734
AK,AFCAFG,Yukon-Koyukuk,2290,A,,-151.3894,65.5095
AK,AFG,Nome,2180,A,,-163.9674,64.8981
AK,AFCAFG,Kusilvak,2158,A,,-163.348,62.1265
AK,AFCAFG,Bethel,2050,A,,-159.7207,60.9126
AK,AFG,Fairbanks North Star,2090,A,,-146.563,64.8084
AK,AFCAFG,Southeast Fairbanks,2240,A,,-143.2062,63.8771
AK,AFCAFG,Matanuska-Susitna,2170,A,,-149.5701,62.316
AK,AFC,Anchorage,2020,A,,-149.1067,61.1501
AK,AFC,Dillingham,2070,A,,-158.2119,59.8021
AK,AFC,Kenai Peninsula,2122,A,,-151.5667,60.2619
AK,AFG,Northwest Arctic,2188,A,,-159.7054,67.0642
AK,AFG,North Slope,2185,A,,-153.4401,69.3084
AK,AFC,Bristol Bay,2060,A,,-156.7013,58.7423
AK,AFC,Kodiak Island,2150,A,,-153.8059,57.6779
AK,AJK,Yakutat,2282,A,,-140.3977,59.9
AK,AJK,Hoonah-Angoon,2105,A,,-135.3203,58.1896
AK,AJK,Haines,2100,A,,-135.5056,59.1216
AK,AJK,Juneau,2110,A,,-134.1803,58.4596
AK,AJK,Sitka,2220,A,,-135.3008,57.2356
AK,AJK,Ketchikan Gateway,2130,A,,-130.9276,55.5941
AK,AJK,Prince of Wales-Hyder,2198,A,,-132.6964,55.5105
AK,AJK,Wrangell,2275,A,,-132.0028,56.3281
AK,AJK,Petersburg Census Area,2195,A,,-133.2557,56.8226
AK,AJK,Skagway,2230,A,,-135.3379,59.5602
AK,AFCAFGAJK,Valdez-Cordova,2261,A,,-144.4625,61.5735
AL,MOB,Crenshaw,1041,C,sc,-86.3136,31.7315
AL,HUN,Cullman,1043,C,nc,-86.8676,34.132
AL,TAE,Dale,1045,C,se,-85.611,31.4318
AL,BMX,Dallas,1047,C,sc,-87.1065,32.3258
AL,HUN,DeKalb,1049,C,ne,-85.8041,34.4598
AL,BMX,Elmore,1051,C,ec,-86.1492,32.5966
AL,MOB,Escambia,1053,C,sc,-87.1616,31.1262
AL,BMX,Etowah,1055,C,ne,-86.0348,34.0453
AL,BMX,Fayette,1057,C,wc,-87.7388,33.7212
AL,HUN,Franklin,1059,C,nw,-87.8438,34.4417
AL,TAE,Geneva,1061,C,se,-85.839,31.095
AL,BMX,Greene,1063,C,wc,-87.9522,32.8531
AL,BMX,Hale,1065,C,wc,-87.6291,32.7627
AL,TAE,Houston,1069,C,se,-85.3025,31.1532
AL,BMX,Jefferson,1073,C,cc,-86.8965,33.5543
AL,BMX,Lamar,1075,C,wc,-88.0969,33.7792
AL,HUN,Lauderdale,1077,C,nw,-87.6543,34.9015
AL,HUN,Lawrence,1079,C,nw,-87.311,34.522
AL,BMX,Lee,1081,C,ec,-85.3556,32.6012
AL,HUN,Limestone,1083,C,nc,-86.9813,34.8101
AL,BMX,Lowndes,1085,C,sc,-86.6501,32.1548
AL,BMX,Macon,1087,C,se,-85.6926,32.386
AL,HUN,Madison,1089,C,nc,-86.5502,34.7631
AL,BMX,Marengo,1091,C,sw,-87.7895,32.2476
AL,BMX,Marion,1093,C,nw,-87.8871,34.1366
AL,HUN,Marshall,1095,C,ne,-86.3066,34.3669
AL,MOB,Monroe,1099,C,sc,-87.3658,31.5706
AL,BMX,Montgomery,1101,C,sc,-86.2076,32.2202
AL,HUN,Morgan,1103,C,nc,-86.8529,34.4535
AL,BMX,Calhoun,1015,C,ec,-85.8261,33.7714
AL,MOB,Butler,1013,C,sc,-86.6803,31.7524
AL,BMX,Bullock,1011,C,se,-85.7161,32.1005
AL,BMX,Blount,1009,C,cc,-86.5674,33.9809
AL,BMX,Bibb,1007,C,cc,-87.1264,32.9986
AL,BMX,Barbour,1005,C,se,-85.3932,31.8696
AL,HUN,Jackson,1071,C,ne,-85.9993,34.7794
AL,BMX,Cherokee,1019,C,ne,-85.6038,34.176
AL,BMX,Chilton,1021,C,cc,-86.7188,32.8479
AL,MOB,Choctaw,1023,C,sw,-88.2628,32.0192
AL,BMX,Clay,1027,C,ec,-85.8605,33.2691
AL,BMX,Cleburne,1029,C,ec,-85.5188,33.6745
AL,TAE,Coffee,1031,C,se,-85.9882,31.4026
AL,HUN,Colbert,1033,C,nw,-87.8049,34.7004
AL,MOB,Conecuh,1035,C,sc,-86.9936,31.4293
AL,BMX,Coosa,1037,C,ec,-86.2476,32.9362
AL,MOB,Covington,1039,C,sc,-86.4512,31.2485
AL,BMX,Perry,1105,C,cc,-87.2942,32.6385
AL,BMX,Pickens,1107,C,wc,-88.0887,33.2809
AL,BMX,Pike,1109,C,se,-85.9409,31.8024
AL,BMX,Randolph,1111,C,ec,-85.4591,33.2938
AL,BMX,Russell,1113,C,se,-85.1849,32.2884
AL,BMX,St. Clair,1115,C,cc,-86.3147,33.7157
AL,BMX,Shelby,1117,C,cc,-86.6607,33.2643
AL,BMX,Sumter,1119,C,wc,-88.1988,32.591
AL,BMX,Talladega,1121,C,ec,-86.1659,33.38
AL,BMX,Tallapoosa,1123,C,ec,-85.7975,32.8624
AL,BMX,Tuscaloosa,1125,C,wc,-87.525,33.2896
AL,BMX,Walker,1127,C,cc,-87.2973,33.8034
AL,MOB,Washington,1129,C,sw,-88.2071,31.4077
AL,MOB,Wilcox,1131,C,sc,-87.3082,31.9892
AL,BMX,Winston,1133,C,nw,-87.3737,34.1492
AL,BMX,Autauga,1001,C,cc,-86.6428,32.5349
AL,BMX,Chambers,1017,C,ec,-85.392,32.9144
AL,MOB,Clarke,1025,C,sw,-87.8309,31.6709
AL,TAE,Henry,1067,C,se,-85.2414,31.5147
AL,MOB,Baldwin,1003,C,sw,-87.7171,30.7278
AL,MOB,Mobile,1097,C,sw,-88.2018,30.7943
AR,JAN,Ashley,5003,C,se,-91.7679,33.1912
AR,LZK,Baxter,5005,C,nc,-92.337,36.2872
AR,TSA,Benton,5007,C,nw,-94.2573,36.3392
AR,LZK,Arkansas,5001,C,se,-91.3749,34.2908
AR,LZK,Bradley,5011,C,se,-92.1623,33.4659
AR,LZK,Calhoun,5013,C,sw,-92.5031,33.558
AR,TSA,Carroll,5015,C,nw,-93.5382,36.341
AR,JAN,Chicot,5017,C,se,-91.294,33.2672
AR,LZK,Clark,5019,C,sw,-93.1764,34.051
AR,MEG,Clay,5021,C,ee,-90.4173,36.3685
AR,LZK,Cleburne,5023,C,nc,-92.0267,35.5381
AR,LZK,Cleveland,5025,C,se,-92.1852,33.8983
AR,SHV,Columbia,5027,C,sw,-93.2274,33.2143
AR,LZK,Conway,5029,C,cc,-92.7014,35.2622
AR,MEG,Craighead,5031,C,ee,-90.6328,35.8308
AR,TSA,Crawford,5033,C,nw,-94.243,35.5889
AR,MEG,Crittenden,5035,C,ee,-90.3089,35.2079
AR,MEG,Cross,5037,C,ee,-90.7713,35.2958
AR,LZK,Dallas,5039,C,sw,-92.6545,33.9698
AR,LZK,Desha,5041,C,se,-91.254,33.8333
AR,LZK,Drew,5043,C,se,-91.72,33.5895
AR,LZK,Faulkner,5045,C,cc,-92.332,35.147
AR,TSA,Franklin,5047,C,wc,-93.8906,35.5123
AR,LZK,Fulton,5049,C,nc,-91.8183,36.3817
AR,LZK,Garland,5051,C,cc,-93.1504,34.5767
AR,LZK,Grant,5053,C,cc,-92.4236,34.29
AR,MEG,Greene,5055,C,ee,-90.5591,36.1177
AR,SHV,Hempstead,5057,C,sw,-93.6684,33.7354
AR,LZK,Hot Spring,5059,C,sw,-92.946,34.3177
AR,SHV,Howard,5061,C,sw,-93.9935,34.0887
AR,LZK,Independence,5063,C,nc,-91.5698,35.7415
AR,LZK,Izard,5065,C,nc,-91.9134,36.0949
AR,LZK,Jackson,5067,C,ee,-91.2146,35.5994
AR,LZK,Jefferson,5069,C,se,-91.9315,34.2688
AR,LZK,Johnson,5071,C,ww,-93.4599,35.5701
AR,SHV,Lafayette,5073,C,sw,-93.6073,33.2408
AR,LZK,Lawrence,5075,C,ee,-91.1071,36.0413
AR,MEG,Lee,5077,C,ee,-90.782,34.7807
AR,LZK,Lincoln,5079,C,se,-91.7333,33.9575
AR,SHV,Little River,5081,C,sw,-94.2343,33.7005
AR,LZK,Logan,5083,C,ww,-93.7163,35.2153
AR,LZK,Lonoke,5085,C,cc,-91.8887,34.7542
AR,LZK,Marion,5089,C,nc,-92.6842,36.2684
AR,SHV,Miller,5091,C,sw,-93.8918,33.3124
AR,MEG,Mississippi,5093,C,ee,-90.054,35.7639
AR,LZK,Monroe,5095,C,ee,-91.2038,34.6778
AR,LZK,Montgomery,5097,C,ww,-93.6595,34.5388
AR,TSA,Madison,5087,C,nw,-93.7246,36.011
AR,SHV,Nevada,5099,C,sw,-93.3072,33.664
AR,LZK,Newton,5101,C,nc,-93.2179,35.92
AR,LZK,Ouachita,5103,C,sw,-92.882,33.5933
AR,LZK,Perry,5105,C,cc,-92.9315,34.9474
AR,MEG,Phillips,5107,C,ee,-90.848,34.4283
AR,LZK,Pike,5109,C,sw,-93.6564,34.1636
AR,MEG,Poinsett,5111,C,ee,-90.6629,35.574
AR,LZK,Polk,5113,C,ww,-94.2281,34.4858
AR,LZK,Pope,5115,C,cc,-93.0342,35.4476
AR,LZK,Prairie,5117,C,cc,-91.5528,34.8297
AR,LZK,Pulaski,5119,C,cc,-92.3117,34.7699
AR,LZK,Randolph,5121,C,ee,-91.0278,36.3415
AR,MEG,St. Francis,5123,C,ee,-90.7478,35.022
AR,LZK,Saline,5125,C,cc,-92.6766,34.6466
AR,LZK,Scott,5127,C,ww,-94.0633,34.8608
AR,LZK,Searcy,5129,C,nc,-92.6995,35.9109
AR,TSA,Sebastian,5131,C,wc,-94.274,35.1993
AR,SHV,Sevier,5133,C,sw,-94.2412,33.9973
AR,LZK,Sharp,5135,C,nc,-91.4799,36.1611
AR,LZK,Stone,5137,C,nc,-92.1567,35.8599
AR,SHV,Union,5139,C,sc,-92.5973,33.1713
AR,LZK,Van Buren,5141,C,nc,-92.5157,35.5807
AR,TSA,Washington,5143,C,nw,-94.2147,35.98
AR,LZK,White,5145,C,cc,-91.7457,35.2563
AR,LZK,Woodruff,5147,C,ee,-91.2432,35.1863
AR,LZK,Yell,5149,C,cc,-93.4113,35.0026
AR,LZK,Boone,5009,C,nc,-93.0915,36.3086
AZ,TWC,Cochise,4003,m,se,-109.7511,31.8796
AZ,TWC,Santa Cruz,4023,m,se,-110.8466,31.526
AZ,TWC,Graham,4009,m,se,-109.8874,32.9327
AZ,PSRFGZ,Gila,4007,m,ec,-110.8117,33.7997
AZ,PSR,Maricopa,4013,m,sc,-112.4912,33.3488
AZ,PSR,La Paz,4012,m,wc,-113.9813,33.7292
AZ,TWC,Pima,4019,m,se,-111.7899,32.0974
AZ,PSRTWC,Pinal,4021,m,se,-111.3447,32.9043
AZ,PSR,Yuma,4027,m,sw,-113.9056,32.7694
AZ,VEF,Mohave,4015,m,nw,-113.7582,35.7044
AZ,FGZ,Yavapai,4025,m,wc,-112.5538,34.5999
AZ,FGZ,Coconino,4005,Mm,nc,-111.7705,35.8387
AZ,FGZ,Navajo,4017,Mm,nc,-110.3214,35.3996
AZ,FGZ,Apache,4001,Mm,ne,-109.4888,35.3957
AZ,TWC,Greenlee,4011,m,se,-109.2401,33.2153
CA,LOX,Santa Barbara,6083,P,sw,-118.4266,32.8
CA,VEFSGXPSR,San Bernardino,6071,P,ss,-116.1784,34.8415
CA,HNX,Kings,6031,P,cc,-119.8156,36.0753
CA,STO,Stanislaus,6099,P,cc,-120.9978,37.5592
CA,STO,Yolo,6113,P,cc,-121.9016,38.6867
CA,REV,Mono,6051,P,nn,-118.8867,37.939
CA,MTR,Monterey,6053,P,cc,-121.2389,36.2169
CA,MTR,Marin,6041,P,nn,-122.7185,38.0725
CA,EKA,Humboldt,6023,P,nw,-123.8735,40.6984
CA,STOREV,Sierra,6091,P,nn,-120.516,39.5804
CA,SGX,San Diego,6073,P,sw,-116.7335,33.0354
CA,SGXPSR,Riverside,6065,P,ss,-115.9939,33.7437
CA,PSR,Imperial,6025,P,se,-115.3653,33.0395
CA,HNX,Fresno,6019,P,cc,-119.6503,36.7584
CA,LOX,Los Angeles,6037,P,sw,-118.2252,34.3203
CA,LOX,Ventura,6111,P,sw,-119.0835,34.4567
CA,HNX,Kern,6029,P,cc,-118.7298,35.3429
CA,MTR,San Benito,6069,P,cc,-121.075,36.6057
CA,HNX,Merced,6047,P,cc,-120.718,37.1926
CA,HNXSTO,Tuolumne,6109,P,nn,-119.9548,38.0276
CA,HNX,Mariposa,6043,P,cc,-119.9055,37.5815
CA,HNX,Madera,6039,P,cc,-119.7626,37.218
CA,HNX,Tulare,6107,P,cc,-118.8005,36.2201
CA,STOREV,Nevada,6057,P,nn,-120.7683,39.3014
CA,STOREV,Alpine,6003,P,nn,-119.8207,38.5973
CA,STO,Colusa,6011,P,cc,-122.237,39.1775
CA,STOREV,Plumas,6063,P,nn,-120.8386,40.0047
CA,STO,San Joaquin,6077,P,cc,-121.272,37.9345
CA,STO,Sutter,6101,P,cc,-121.6949,39.0345
CA,REVSTO,Lassen,6035,P,nn,-120.5943,40.6736
CA,MFR,Siskiyou,6093,P,nn,-122.5404,41.5927
CA,EKA,Lake,6033,P,cc,-122.7532,39.0997
CA,EKA,Trinity,6105,P,nw,-123.1126,40.6507
CA,MFRREV,Modoc,6049,P,nn,-120.725,41.5899
CA,MTR,Santa Clara,6085,P,nn,-121.6963,37.2325
CA,MTR,Alameda,6001,P,nn,-121.886,37.6466
CA,MTR,Napa,6055,P,nn,-122.3305,38.5066
CA,STOREV,El Dorado,6017,P,nn,-120.5247,38.7785
CA,STOREV,Placer,6061,P,cc,-120.7176,39.0635
CA,STO,Yuba,6115,P,cc,-121.3512,39.2691
CA,STO,Amador,6005,P,nn,-120.6519,38.4461
CA,STO,Calaveras,6009,P,nn,-120.5541,38.2046
CA,STO,Shasta,6089,P,nn,-122.0405,40.7638
CA,STO,Glenn,6021,P,cc,-122.3922,39.5984
CA,STO,Tehama,6103,P,nn,-122.2339,40.1257
CA,STO,Butte,6007,P,nn,-121.6007,39.6669
CA,VEF,Inyo,6027,P,sc,-117.4107,36.5111
CA,STO,Solano,6095,P,cc,-121.9266,38.2805
CA,MTR,Contra Costa,6013,P,nn,-121.9276,37.9163
CA,MTR,Santa Cruz,6087,P,nn,-122.0018,37.0563
CA,MTR,Sonoma,6097,P,nn,-122.8873,38.5286
CA,EKA,Mendocino,6045,P,nw,-123.3912,39.44
CA,MTR,San Mateo,6081,P,nn,-122.3293,37.4218
CA,MTR,San Francisco,6075,P,nn,-122.4424,37.7558
CA,LOX,San Luis Obispo,6079,P,sw,-120.404,35.3872
CA,STO,Sacramento,6067,P,cc,-121.3384,38.4542
CA,EKA,Del Norte,6015,P,nw,-123.897,41.7431
CA,SGX,Orange,6059,P,sw,-117.7605,33.703
CO,PUB,Baca,8009,M,se,-102.5605,37.3192
CO,PUB,Bent,8011,M,se,-103.0717,37.9551
CO,GLD,Cheyenne,8017,M,ec,-102.6034,38.8279
CO,PUB,Crowley,8025,M,se,-103.7849,38.3266
CO,GLD,Kit Carson,8063,M,ec,-102.6029,39.3054
CO,BOU,Logan,8075,M,ne,-103.1101,40.7247
CO,BOU,Morgan,8087,M,ne,-103.8098,40.2627
CO,PUB,Otero,8089,M,se,-103.7164,37.9027
CO,BOU,Phillips,8095,M,ne,-102.3575,40.5939
CO,PUB,Prowers,8099,M,se,-102.3933,37.9552
CO,GJT,San Juan,8111,M,sw,-107.6761,37.764
CO,BOU,Sedgwick,8115,M,ne,-102.3518,40.8758
CO,BOU,Washington,8121,M,ne,-103.2013,39.971
CO,GLD,Yuma,8125,M,ne,-102.4243,40.0029
CO,BOU,Denver,8031,M,ne,-104.8772,39.7611
CO,GJT,Montrose,8085,M,wc,-108.2694,38.4022
CO,GJT,San Miguel,8113,M,sw,-108.4058,38.0038
CO,GJT,Gunnison,8051,M,wc,-107.0317,38.6668
CO,BOU,Arapahoe,8005,M,ne,-104.3381,39.6497
CO,BOU,Weld,8123,M,ne,-104.3925,40.5549
CO,BOU,Elbert,8039,M,ec,-104.1359,39.2866
CO,BOU,Park,8093,M,cc,-105.7172,39.1193
CO,BOU,Clear Creek,8019,M,cc,-105.6444,39.6891
CO,BOU,Adams,8001,M,ne,-104.3379,39.8736
CO,BOU,Lincoln,8073,M,ec,-103.514,38.988
CO,BOU,Grand,8049,M,nc,-106.1184,40.1026
CO,BOU,Jefferson,8059,M,cc,-105.2506,39.5865
CO,GJT,Hinsdale,8053,M,sw,-107.3003,37.8213
CO,GJT,Ouray,8091,M,sw,-107.7693,38.1555
CO,GJT,Archuleta,8007,M,sw,-107.0483,37.1936
CO,GJT,Delta,8029,M,wc,-107.863,38.8613
CO,GJT,Mesa,8077,M,wc,-108.4665,39.0183
CO,GJT,Eagle,8037,M,wc,-106.6953,39.6278
CO,GJT,Dolores,8033,M,sw,-108.5172,37.7516
CO,GJT,Montezuma,8083,M,sw,-108.5968,37.3384
CO,GJT,Routt,8107,M,nw,-106.9912,40.4851
CO,BOU,Summit,8117,M,cc,-106.1163,39.6342
CO,GJT,Moffat,8081,M,nw,-108.2073,40.6184
CO,BOU,Larimer,8069,M,nc,-105.4612,40.6664
CO,BOU,Jackson,8057,M,nc,-106.3428,40.6664
CO,BOU,Douglas,8035,M,ne,-104.9295,39.3297
CO,GJT,La Plata,8067,M,sw,-107.8435,37.2866
CO,BOU,Boulder,8013,M,ne,-105.3575,40.0925
CO,PUB,Teller,8119,M,cc,-105.1618,38.8822
CO,PUB,Custer,8027,M,se,-105.3674,38.1087
CO,PUB,Pueblo,8101,M,se,-104.5128,38.1734
CO,PUB,Huerfano,8055,M,se,-104.9606,37.6847
CO,PUB,Mineral,8079,M,sc,-106.9241,37.669
CO,PUB,Conejos,8021,M,sc,-106.1917,37.2007
CO,PUB,Lake,8065,M,cc,-106.3451,39.202
CO,PUB,Saguache,8109,M,cc,-106.2815,38.0806
CO,PUB,Fremont,8043,M,cc,-105.4396,38.473
CO,PUB,Alamosa,8003,M,se,-105.7883,37.5729
CO,PUB,Chaffee,8015,M,cc,-106.1938,38.7466
CO,PUB,Rio Grande,8105,M,sc,-106.3832,37.5825
CO,PUB,El Paso,8041,M,ec,-104.5256,38.8321
CO,PUB,Costilla,8023,M,sc,-105.4283,37.2781
CO,PUB,Kiowa,8061,M,se,-102.7404,38.4327
CO,BOU,Broomfield,8014,M,ne,-105.0525,39.954
CO,PUB,Las Animas,8071,M,se,-104.0387,37.3159
CO,GJT,Garfield,8045,M,wc,-107.9039,39.5993
CO,BOU,Gilpin,8047,M,cc,-105.5226,39.8576
CO,GJT,Rio Blanco,8103,M,nw,-108.2172,39.9798
CO,GJT,Pitkin,8097,M,wc,-106.9166,39.2171
CT,BOX,Hartford,9003,E,nn,-72.7328,41.8064
CT,BOX,Tolland,9013,E,nn,-72.3365,41.855
CT,BOX,Windham,9015,E,nn,-71.9875,41.8299
CT,OKX,New Haven,9009,E,ss,-72.9324,41.4108
CT,ALY,Litchfield,9005,E,nn,-73.2453,41.7925
CT,OKX,New London,9011,E,ss,-72.1004,41.4893
CT,OKX,Middlesex,9007,E,ss,-72.534,41.4624
CT,OKX,Fairfield,9001,E,ss,-73.3887,41.2731
DE,PHI,New Castle,10003,E,nn,-75.6488,39.5811
DE,PHI,Kent,10001,E,cc,-75.5688,39.0867
DE,PHI,Sussex,10005,E,ss,-75.399,38.6621
FL,TBW,DeSoto,12027,E,sc,-81.8093,27.1863
FL,MLB,St. Lucie,12111,E,ec,-80.4836,27.3764
FL,MFL,Hendry,12051,E,ss,-81.1719,26.5473
FL,TBW,Hardee,12049,E,cc,-81.8099,27.4927
FL,TBW,Highlands,12055,E,sc,-81.341,27.3434
FL,MLB,Osceola,12097,E,ec,-81.1496,28.0627
FL,TBW,Polk,12105,E,cc,-81.6978,27.9489
FL,MLB,Indian River,12061,E,ec,-80.6158,27.6929
FL,MLB,Okeechobee,12093,E,ec,-80.9015,27.4283
FL,MFL,Glades,12043,E,ss,-81.2397,26.9605
FL,MLB,Martin,12085,E,ec,-80.3893,27.0844
FL,TBW,Citrus,12017,E,wc,-82.467,28.8509
FL,MFL,Broward,12011,E,se,-80.4886,26.1519
FL,MFL,Collier,12021,E,sw,-81.3393,26.1196
FL,MFL,Miami-Dade,12086,E,se,-80.5682,25.6171
FL,MFL,Palm Beach,12099,E,se,-80.4329,26.623
FL,JAX,Clay,12019,E,ne,-81.8579,29.9831
FL,TAE,Calhoun,12013,C,pa,-85.1972,30.4061
FL,JAX,Bradford,12007,E,nn,-82.1689,29.9502
FL,JAX,Baker,12003,E,ne,-82.2846,30.331
FL,JAX,Alachua,12001,E,nn,-82.3576,29.6749
FL,JAX,Putnam,12107,E,ne,-81.7442,29.6086
FL,JAX,Columbia,12023,E,nn,-82.6215,30.2243
FL,JAX,St. Johns,12109,E,ne,-81.4439,29.9013
FL,JAX,Gilchrist,12041,E,nn,-82.8006,29.7259
FL,JAX,Hamilton,12047,E,nn,-82.9478,30.4964
FL,TAE,Lafayette,12067,E,bb,-83.1811,29.9855
FL,TAE,Leon,12073,E,bb,-84.2778,30.4581
FL,JAX,Suwannee,12121,E,nn,-82.9915,30.1956
FL,JAX,Union,12125,E,nn,-82.3714,30.0439
FL,TAE,Madison,12079,E,bb,-83.47,30.4442
FL,JAX,Marion,12083,E,nn,-82.0567,29.2103
FL,TAE,Franklin,12037,E,bb,-84.6607,29.9194
FL,TAE,Gulf,12045,CE,pa,-85.1435,29.9458
FL,JAX,Flagler,12035,E,ne,-81.3145,29.4605
FL,TAE,Holmes,12059,C,pa,-85.8143,30.8679
FL,MOB,Okaloosa,12091,C,nw,-86.5964,30.7068
FL,MOB,Santa Rosa,12113,C,nw,-87.0172,30.732
FL,MOB,Escambia,12033,C,nw,-87.3777,30.7012
FL,TAE,Gadsden,12039,E,bb,-84.6137,30.5795
FL,TBW,Hillsborough,12057,E,wc,-82.3072,27.9306
FL,JAX,Duval,12031,E,ne,-81.674,30.3302
FL,JAX,Nassau,12089,E,ne,-81.8085,30.6095
FL,TAE,Jackson,12063,C,pa,-85.2194,30.7956
FL,MLB,Seminole,12117,E,ec,-81.2362,28.717
FL,MLB,Orange,12095,E,ec,-81.3238,28.5148
FL,TBW,Sumter,12119,E,cc,-82.081,28.7046
FL,MLB,Lake,12069,E,ec,-81.7113,28.7615
FL,MLB,Brevard,12009,E,ec,-80.7436,28.2631
FL,MLB,Volusia,12127,E,ec,-81.1912,29.0604
FL,TBW,Lee,12071,E,sw,-81.821,26.5786
FL,TBW,Levy,12075,E,nn,-83.0885,29.2827
FL,TBW,Manatee,12081,E,wc,-82.2978,27.4713
FL,TAE,Washington,12133,C,pa,-85.6656,30.6106
FL,TAE,Bay,12005,C,pa,-85.6151,30.2797
FL,MFL,Monroe,12087,E,sw,-81.0326,25.5205
,,,,,,,
,,,,,,,
FL,TAE,Jefferson,12065,E,bb,-83.8951,30.438
FL,TAE,Taylor,12123,E,bb,-83.603,30.0477
FL,TAE,Dixie,12029,E,bb,-83.1583,29.6101
,,,,,,,
FL,TBW,Pinellas,12103,E,wc,-82.722,27.928
,,,,,,,
FL,TBW,Sarasota,12115,E,wc,-82.3219,27.181
FL,TBW,Hernando,12053,E,wc,-82.4209,28.5528
FL,TBW,Pasco,12101,E,wc,-82.3911,28.3093
,,,,,,,
FL,TAE,Wakulla,12129,E,bb,-84.4026,30.1703
,,,,,,,
FL,TAE,Walton,12131,C,pa,-86.1631,30.6598
,,,,,,,
FL,TAE,Liberty,12077,E,bb,-84.8829,30.2414
GA,CHS,Bryan,13029,E,se,-81.4474,32.0175
,,,,,,,
GA,CHS,Chatham,13051,E,se,-81.1416,32.0099
GA,FFC,Wilkes,13317,E,ec,-82.7432,33.782
GA,FFC,Wilcox,13315,E,cc,-83.4322,31.9734
GA,FFC,Whitfield,13313,E,nw,-84.9673,34.8056
GA,FFC,White,13311,E,ne,-83.7472,34.6464
GA,FFC,Wheeler,13309,E,cc,-82.7246,32.1171
GA,FFC,Webster,13307,E,wc,-84.551,32.0466
GA,JAX,Wayne,13305,E,se,-81.9168,31.5515
GA,FFC,Washington,13303,E,ec,-82.7959,32.9695
GA,FFC,Warren,13301,E,ec,-82.6767,33.409
GA,JAX,Ware,13299,E,se,-82.4238,31.0534
GA,FFC,Walker,13295,E,nw,-85.3009,34.7356
GA,FFC,Union,13291,E,nc,-83.9907,34.8342
GA,FFC,Twiggs,13289,E,cc,-83.4272,32.6672
GA,TAE,Turner,13287,E,sc,-83.6242,31.7164
GA,FFC,Troup,13285,E,wc,-85.0283,33.0335
GA,FFC,Treutlen,13283,E,ec,-82.5673,32.4039
GA,FFC,Towns,13281,E,ne,-83.7373,34.9166
GA,FFC,Toombs,13279,E,se,-82.3306,32.1206
GA,TAE,Tift,13277,E,sc,-83.5266,31.4575
GA,TAE,Thomas,13275,E,sc,-83.9194,30.8637
GA,TAE,Terrell,13273,E,sw,-84.4368,31.7768
GA,FFC,Telfair,13271,E,cc,-82.9389,31.9298
GA,CHS,Tattnall,13267,E,se,-82.0582,32.0458
GA,FFC,Taliaferro,13265,E,ec,-82.8787,33.5662
GA,FFC,Talbot,13263,E,wc,-84.533,32.6995
GA,FFC,Sumter,13261,E,wc,-84.1971,32.04
GA,FFC,Stewart,13259,E,wc,-84.8351,32.0785
GA,GSP,Stephens,13257,E,ne,-83.2935,34.554
GA,FFC,Spalding,13255,E,wc,-84.2841,33.2609
GA,CHS,Screven,13251,E,se,-81.6119,32.7507
GA,FFC,Schley,13249,E,wc,-84.3149,32.262
GA,FFC,Rockdale,13247,E,nc,-84.0267,33.6545
GA,CAE,Richmond,13245,E,ec,-82.0735,33.3596
GA,TAE,Randolph,13243,E,sw,-84.7542,31.7626
GA,GSP,Rabun,13241,E,ne,-83.4021,34.8818
GA,FFC,Putnam,13237,E,cc,-83.3728,33.3218
GA,FFC,Pulaski,13235,E,cc,-83.4764,32.2328
GA,FFC,Polk,13233,E,nw,-85.1881,34.0018
GA,FFC,Pike,13231,E,wc,-84.3892,33.0922
GA,JAX,Pierce,13229,E,se,-82.2134,31.3589
GA,FFC,Pickens,13227,E,nc,-84.4656,34.4643
GA,FFC,Peach,13225,E,cc,-83.8268,32.5688
GA,FFC,Paulding,13223,E,nw,-84.8672,33.9202
GA,FFC,Oglethorpe,13221,E,ne,-83.0806,33.8807
GA,FFC,Oconee,13219,E,ne,-83.437,33.8349
GA,FFC,Newton,13217,E,nc,-83.8503,33.5551
GA,FFC,Muscogee,13215,E,wc,-84.877,32.51
GA,FFC,Dodge,13091,E,cc,-83.1684,32.1722
GA,FFC,Dooly,13093,E,cc,-83.7987,32.1572
GA,TAE,Dougherty,13095,E,sw,-84.2164,31.5333
GA,FFC,Douglas,13097,E,nc,-84.7677,33.7015
GA,TAE,Early,13099,E,sw,-84.9037,31.3228
GA,JAX,Echols,13101,E,se,-82.8939,30.7101
GA,GSP,Elbert,13105,E,ne,-82.8403,34.117
GA,FFC,Emanuel,13107,E,ec,-82.3018,32.5898
GA,FFC,Fannin,13111,E,nc,-84.3197,34.8641
GA,FFC,Fayette,13113,E,nc,-84.4941,33.414
GA,FFC,Floyd,13115,E,nw,-85.2143,34.2632
GA,FFC,Forsyth,13117,E,nc,-84.1253,34.2255
GA,GSP,Franklin,13119,E,ne,-83.2292,34.3755
GA,FFC,Gilmer,13123,E,nc,-84.4554,34.6915
GA,FFC,Glascock,13125,E,ec,-82.6107,33.2293
GA,FFC,Gordon,13129,E,nw,-84.8757,34.5034
GA,TAE,Grady,13131,E,sw,-84.2344,30.8747
GA,FFC,Greene,13133,E,ec,-83.1667,33.5788
GA,FFC,Gwinnett,13135,E,nc,-84.0235,33.9617
GA,GSP,Habersham,13137,E,ne,-83.5312,34.631
GA,FFC,Hall,13139,E,nc,-83.8197,34.3168
GA,FFC,Hancock,13141,E,ec,-83.001,33.2703
GA,FFC,Haralson,13143,E,nw,-85.211,33.7943
GA,FFC,Harris,13145,E,wc,-84.909,32.736
GA,GSP,Hart,13147,E,ne,-82.964,34.3511
GA,FFC,Heard,13149,E,wc,-85.1283,33.297
GA,FFC,Henry,13151,E,nc,-84.1554,33.4534
GA,FFC,Houston,13153,E,cc,-83.6662,32.459
GA,TAE,Irwin,13155,E,sc,-83.2764,31.6023
GA,FFC,Jackson,13157,E,ne,-83.5663,34.1339
GA,FFC,Clayton,13063,E,nc,-84.3577,33.5419
GA,FFC,Jefferson,13163,E,ec,-82.4181,33.0549
GA,FFC,Murray,13213,E,nw,-84.7481,34.7885
GA,FFC,Morgan,13211,E,nc,-83.4924,33.5908
GA,FFC,Montgomery,13209,E,cc,-82.5338,32.1746
GA,FFC,Monroe,13207,E,cc,-83.9187,33.0141
GA,TAE,Mitchell,13205,E,sw,-84.1942,31.2254
GA,TAE,Miller,13201,E,sw,-84.7307,31.164
GA,FFC,Meriwether,13199,E,wc,-84.6883,33.0407
GA,FFC,Marion,13197,E,wc,-84.5246,32.3534
GA,FFC,Madison,13195,E,ne,-83.209,34.1279
GA,CAE,McDuffie,13189,E,ec,-82.4814,33.4829
GA,FFC,Lumpkin,13187,E,nc,-84.0031,34.5722
GA,TAE,Lowndes,13185,E,sc,-83.2677,30.8339
GA,CAE,Lincoln,13181,E,ec,-82.4512,33.7936
GA,FFC,Laurens,13175,E,cc,-82.9222,32.4637
GA,TAE,Lanier,13173,E,sc,-83.0626,31.038
GA,FFC,Lamar,13171,E,wc,-84.1394,33.0765
GA,FFC,Jones,13169,E,cc,-83.5605,33.0251
GA,FFC,Johnson,13167,E,ec,-82.6601,32.7015
GA,CHS,Jenkins,13165,E,se,-81.9636,32.7925
GA,FFC,Wilkinson,13319,E,cc,-83.1713,32.8024
GA,JAX,Jeff Davis,13161,E,se,-82.637,31.8056
GA,FFC,Upson,13293,E,wc,-84.2993,32.8812
GA,FFC,Macon,13193,E,wc,-84.0425,32.3584
GA,CHS,Evans,13109,E,se,-81.8868,32.1568
GA,TAE,Lee,13177,E,sw,-84.141,31.7796
GA,FFC,Taylor,13269,E,wc,-84.2504,32.5556
GA,TAE,Brooks,13027,E,sc,-83.5803,30.842
GA,JAX,Appling,13001,E,se,-82.289,31.7493
GA,JAX,Atkinson,13003,E,se,-82.88,31.2971
GA,JAX,Bacon,13005,E,se,-82.4527,31.5537
GA,TAE,Baker,13007,E,sw,-84.4447,31.3262
GA,FFC,Baldwin,13009,E,cc,-83.2498,33.069
GA,FFC,Banks,13011,E,ne,-83.4974,34.3541
GA,FFC,Barrow,13013,E,nc,-83.7126,33.9932
GA,FFC,Bartow,13015,E,nw,-84.8405,34.2379
GA,TAE,Ben Hill,13017,E,sc,-83.2206,31.7598
GA,TAE,Berrien,13019,E,sc,-83.2297,31.2761
GA,FFC,Bibb,13021,E,cc,-83.6979,32.8067
GA,FFC,Bleckley,13023,E,cc,-83.3279,32.4344
GA,JAX,Brantley,13025,E,se,-81.9819,31.197
GA,CHS,Bulloch,13031,E,se,-81.7432,32.3969
GA,CAE,Burke,13033,E,ec,-82.0008,33.0612
GA,FFC,Butts,13035,E,cc,-83.9572,33.2891
GA,TAE,Calhoun,13037,E,sw,-84.6249,31.5292
GA,CHS,Candler,13043,E,se,-82.0737,32.4035
GA,FFC,Carroll,13045,E,nw,-85.0797,33.5828
GA,FFC,Catoosa,13047,E,nw,-85.1381,34.9036
GA,FFC,Chattahoochee,13053,E,wc,-84.787,32.347
GA,FFC,Chattooga,13055,E,nw,-85.3454,34.475
GA,FFC,Cherokee,13057,E,nc,-84.4764,34.2439
GA,FFC,Clarke,13059,E,ne,-83.3675,33.9513
GA,TAE,Worth,13321,E,sc,-83.851,31.5516
GA,JAX,Clinch,13065,E,se,-82.7063,30.9151
GA,FFC,Cobb,13067,E,nc,-84.5767,33.9415
GA,JAX,Coffee,13069,E,se,-82.8493,31.5492
GA,TAE,Colquitt,13071,E,sc,-83.7688,31.1884
GA,CAE,Columbia,13073,E,ec,-82.264,33.5442
GA,TAE,Cook,13075,E,sc,-83.4305,31.154
GA,FFC,Coweta,13077,E,wc,-84.7633,33.3535
GA,FFC,Crawford,13079,E,cc,-83.9864,32.7145
GA,FFC,Crisp,13081,E,cc,-83.7681,31.923
GA,FFC,Dade,13083,E,nw,-85.5045,34.8546
GA,FFC,Dawson,13085,E,nc,-84.1704,34.4438
GA,FFC,DeKalb,13089,E,nc,-84.2263,33.7715
GA,CHS,Effingham,13103,E,se,-81.3407,32.3675
,,,,,,,
GA,TAE,Decatur,13087,E,sw,-84.7577,30.7994
,,,,,,,
GA,CHS,Liberty,13179,E,se,-81.2103,31.7093
GA,JAX,Charlton,13049,E,se,-82.138,30.7818
GA,TAE,Quitman,13239,E,sw,-85.0188,31.8674
GA,TAE,Clay,13061,E,sw,-84.9803,31.6264
,,,,,,,
GA,FFC,Fulton,13121,E,nc,-84.4669,33.7903
GA,JAX,Camden,13039,E,se,-81.682,30.9335
GA,CHS,McIntosh,13191,E,se,-81.2646,31.5329
,,,,,,,
GA,TAE,Seminole,13253,E,sw,-84.8812,30.7935
GA,CHS,Long,13183,E,se,-81.746,31.7528
GA,JAX,Glynn,13127,E,se,-81.5512,31.2365
,,,,,,,
GA,FFC,Walton,13297,E,nc,-83.7338,33.7816
HI,HFO,Kauai,15007,H,,-160.157,21.897
GA,FFC,Jasper,13159,E,cc,-83.6881,33.3165
,,,,,,,
HI,HFO,Maui,15009,H,,-156.6118,20.5503
,,,,,,,
,,,,,,,
,,,,,,,
MD,LWX,Anne Arundel,24003,E,cc,-76.5279,38.9332
HI,HFO,Hawaii in Hawaii,15001,H,,-155.5212,19.6013
HI,HFO,Oahu in Honolulu,15003,H,,-157.9765,21.4625
IA,DVN,Clinton,19045,C,ec,-90.532,41.898
IA,DMX,Crawford,19047,C,wc,-95.3821,42.0372
IA,DMX,Dallas,19049,C,cc,-94.0398,41.6849
IA,DMX,Davis,19051,C,se,-92.4097,40.7477
IA,DMX,Decatur,19053,C,sc,-93.7863,40.7377
IA,DMX,Wright,19197,C,nc,-93.7352,42.7331
IA,ARX,Winneshiek,19191,C,ne,-91.8436,43.2906
IA,FSD,Woodbury,19193,C,wc,-96.0449,42.3897
IA,DMX,Worth,19195,C,nc,-93.2609,43.3774
IA,DVN,Jones,19105,C,ec,-91.1314,42.1212
IA,DMX,Webster,19187,C,cc,-94.1818,42.4278
IA,DMX,Winnebago,19189,C,nc,-93.7342,43.3775
IA,DVN,Scott,19163,C,ec,-90.6232,41.6371
IA,DMX,Sac,19161,C,wc,-95.1055,42.3862
IA,DMX,Ringgold,19159,C,sc,-94.244,40.7352
IA,DMX,Poweshiek,19157,C,cc,-92.5315,41.6864
IA,OAX,Pottawattamie,19155,C,sw,-95.5423,41.3364
IA,DMX,Polk,19153,C,cc,-93.5734,41.6855
IA,DMX,Pocahontas,19151,C,nw,-94.6788,42.7341
IA,FSD,Plymouth,19149,C,nw,-96.2142,42.7378
IA,DMX,Palo Alto,19147,C,nw,-94.6782,43.082
IA,OAX,Page,19145,C,sw,-95.1502,40.7391
IA,FSD,Osceola,19143,C,nw,-95.6237,43.3785
IA,FSD,O'Brien,19141,C,nw,-95.625,43.0838
IA,DVN,Muscatine,19139,C,ec,-91.1127,41.4839
IA,OAX,Montgomery,19137,C,sw,-95.1563,41.0301
IA,DMX,Monroe,19135,C,sc,-92.869,41.0297
IA,OAX,Monona,19133,C,wc,-95.96,42.0516
IA,ARX,Mitchell,19131,C,nc,-92.7891,43.3564
IA,OAX,Mills,19129,C,sw,-95.6214,41.0332
IA,DMX,Marshall,19127,C,cc,-92.9988,42.0358
IA,DMX,Marion,19125,C,sc,-93.0995,41.3344
IA,DMX,Mahaska,19123,C,sc,-92.6409,41.3351
IA,DMX,Madison,19121,C,sc,-94.0155,41.3307
IA,FSD,Lyon,19119,C,nw,-96.2103,43.3805
IA,DMX,Lucas,19117,C,sc,-93.3277,41.0293
IA,DVN,Louisa,19115,C,se,-91.2597,41.2185
IA,DVN,Linn,19113,C,ec,-91.5989,42.0789
IA,DVN,Lee,19111,C,se,-91.4792,40.642
IA,DMX,Kossuth,19109,C,nc,-94.2067,43.2042
IA,DVN,Keokuk,19107,C,se,-92.1787,41.3364
IA,DVN,Johnson,19103,C,ec,-91.5881,41.6715
IA,DVN,Jefferson,19101,C,se,-91.9489,41.0318
IA,DVN,Jackson,19097,C,ec,-90.5742,42.1717
IA,DMX,Wayne,19185,C,sc,-93.3274,40.7395
IA,DVN,Washington,19183,C,se,-91.7179,41.3356
IA,DMX,Warren,19181,C,sc,-93.5614,41.3343
IA,DMX,Wapello,19179,C,se,-92.4095,41.0306
IA,DVN,Van Buren,19177,C,se,-91.95,40.7532
IA,DMX,Union,19175,C,sc,-94.2424,41.0277
IA,DMX,Taylor,19173,C,sw,-94.6965,40.7374
IA,DMX,Tama,19171,C,cc,-92.5326,42.0798
IA,DMX,Story,19169,C,cc,-93.4651,42.0362
IA,FSD,Sioux,19167,C,nw,-96.1779,43.0826
IA,OAX,Shelby,19165,C,sw,-95.3103,41.6851
IA,DVN,Iowa,19095,C,ec,-92.0656,41.6863
IA,FSD,Ida,19093,C,wc,-95.5136,42.3869
IA,DMX,Humboldt,19091,C,nc,-94.2073,42.7764
IA,ARX,Howard,19089,C,ne,-92.3172,43.3568
IA,DVN,Henry,19087,C,se,-91.5446,40.9879
IA,OAX,Harrison,19085,C,sw,-95.8167,41.6829
IA,DMX,Hardin,19083,C,cc,-93.2404,42.3838
IA,DMX,Hancock,19081,C,nc,-93.7343,43.0819
IA,DMX,Hamilton,19079,C,cc,-93.7068,42.3838
IA,DMX,Guthrie,19077,C,wc,-94.501,41.6838
IA,DMX,Grundy,19075,C,cc,-92.7911,42.402
IA,DMX,Greene,19073,C,wc,-94.3969,42.0362
IA,OAX,Fremont,19071,C,sw,-95.6047,40.7456
IA,DMX,Franklin,19069,C,nc,-93.2624,42.7325
IA,ARX,Floyd,19067,C,nc,-92.789,43.06
IA,ARX,Fayette,19065,C,ne,-91.8443,42.8625
IA,DMX,Emmet,19063,C,nw,-94.6784,43.3779
IA,DVN,Dubuque,19061,C,ne,-90.8824,42.4689
IA,FSD,Dickinson,19059,C,nw,-95.151,43.3779
IA,DVN,Des Moines,19057,C,se,-91.1815,40.9232
IA,DVN,Delaware,19055,C,ne,-91.3673,42.4711
IA,DMX,Adair,19001,C,sw,-94.471,41.3307
IA,DMX,Adams,19003,C,sw,-94.6992,41.029
IA,ARX,Allamakee,19005,C,ne,-91.3781,43.2843
IA,DMX,Appanoose,19007,C,sc,-92.8687,40.7432
IA,DMX,Audubon,19009,C,wc,-94.9058,41.6846
IA,DVN,Benton,19011,C,ec,-92.0657,42.0801
IA,DMX,Black Hawk,19013,C,ne,-92.3085,42.4701
IA,DMX,Boone,19015,C,cc,-93.9318,42.0366
IA,DMX,Bremer,19017,C,ne,-92.3182,42.7747
IA,DVN,Buchanan,19019,C,ne,-91.8379,42.4707
IA,FSD,Buena Vista,19021,C,nw,-95.1513,42.7355
IA,DMX,Butler,19023,C,nc,-92.7902,42.7316
IA,DMX,Calhoun,19025,C,wc,-94.6405,42.3852
IA,DMX,Carroll,19027,C,wc,-94.8607,42.0362
IA,DMX,Cass,19029,C,sw,-94.9278,41.3315
IA,DVN,Cedar,19031,C,ec,-91.1324,41.7723
IA,DMX,Cerro Gordo,19033,C,nc,-93.2608,43.0815
IA,FSD,Cherokee,19035,C,nw,-95.6239,42.7357
IA,ARX,Chickasaw,19037,C,ne,-92.3176,43.0601
IA,DMX,Clarke,19039,C,sc,-93.7851,41.029
IA,FSD,Clay,19041,C,nw,-95.151,43.0826
IA,ARX,Clayton,19043,C,ne,-91.3414,42.8447
IA,DMX,Jasper,19099,C,cc,-93.0537,41.686
ID,PIH,Fremont,16043,M,se,-111.482,44.2288
ID,BOI,Ada,16001,M,sw,-116.2411,43.4511
ID,PIH,Bear Lake,16007,M,se,-111.3296,42.2848
ID,OTX,Bonner,16017,P,pa,-116.601,48.2997
ID,OTX,Boundary,16021,P,pa,-116.4629,48.7669
ID,BOI,Canyon,16027,M,sw,-116.7092,43.625
ID,PIH,Caribou,16029,M,se,-111.5622,42.7705
ID,PIH,Clark,16033,M,se,-112.3512,44.284
ID,BOI,Gooding,16047,M,sc,-114.8124,42.9706
ID,BOI,Jerome,16053,M,sc,-114.2641,42.6898
ID,OTX,Lewis,16061,P,nc,-116.4262,46.237
ID,PIH,Minidoka,16067,M,sc,-113.6375,42.8544
ID,PIH,Oneida,16071,M,se,-112.5396,42.1949
ID,BOI,Payette,16075,M,sw,-116.7608,44.0067
ID,OTX,Shoshone,16079,P,pa,-115.891,47.3516
ID,PIH,Teton,16081,M,ee,-111.2077,43.7595
ID,PIH,Lincoln,16063,M,sc,-114.1395,43.0023
ID,PIH,Jefferson,16051,M,se,-112.3113,43.8201
ID,BOI,Valley,16085,M,sw,-115.5661,44.7667
ID,BOI,Boise,16015,M,sw,-115.7301,43.9892
ID,BOI,Owyhee,16073,M,sw,-116.17,42.5816
ID,PIH,Bingham,16011,M,se,-112.3981,43.2165
ID,MSO,Idaho,16049,MP,cc,-115.4674,45.8442
ID,MSO,Clearwater,16035,P,pa,-115.6569,46.6737
ID,OTX,Nez Perce,16069,P,nc,-116.7502,46.3268
ID,OTX,Benewah,16009,P,pa,-116.6588,47.2176
ID,OTX,Latah,16057,P,pa,-116.7117,46.8161
ID,OTX,Kootenai,16055,P,pa,-116.7,47.6746
ID,MSO,Lemhi,16059,M,ec,-113.933,44.9433
ID,PIH,Butte,16023,M,se,-113.1711,43.7233
ID,PIH,Bonneville,16019,M,se,-111.6149,43.3877
ID,PIH,Power,16077,M,se,-112.8407,42.6937
ID,BOI,Elmore,16039,M,sw,-115.4692,43.3539
ID,BOI,Camas,16025,M,sw,-114.8059,43.4633
ID,BOI,Washington,16087,M,sw,-116.7848,44.4524
ID,BOI,Gem,16045,M,sw,-116.3973,44.0617
ID,BOI,Twin Falls,16083,M,sc,-114.6671,42.356
ID,PIH,Cassia,16031,M,se,-113.6004,42.2839
ID,PIH,Bannock,16005,M,se,-112.2246,42.6685
ID,PIH,Blaine,16013,M,cc,-113.9799,43.4123
ID,PIH,Madison,16065,M,se,-111.6594,43.7842
ID,PIH,Franklin,16041,M,se,-111.8132,42.1811
ID,BOI,Adams,16003,M,sw,-116.4539,44.8897
ID,PIH,Custer,16037,M,cc,-114.2816,44.2412
IL,PAH,Jackson,17077,C,ss,-89.3821,37.7852
IL,PAH,Jefferson,17081,C,sc,-88.924,38.3005
IL,LSX,Jersey,17083,C,sw,-90.3566,39.0856
IL,DVN,Jo Daviess,17085,C,nw,-90.2123,42.3657
IL,PAH,Johnson,17087,C,ss,-88.8809,37.4596
IL,LOT,Kane,17089,C,ne,-88.4287,41.939
IL,LOT,Kankakee,17091,C,ne,-87.8618,41.1377
IL,LOT,Kendall,17093,C,ne,-88.4289,41.5906
IL,LOT,Iroquois,17075,C,ec,-87.8243,40.7474
IL,LOT,La Salle,17099,C,nc,-88.8859,41.3439
IL,ILX,Lawrence,17101,C,se,-87.7266,38.72
IL,DVN,Henry,17073,C,nw,-90.1314,41.3531
IL,LOT,Livingston,17105,C,cc,-88.5578,40.8914
IL,ILX,Logan,17107,C,cc,-89.3676,40.1245
IL,DVN,McDonough,17109,C,wc,-90.678,40.4562
IL,LOT,McHenry,17111,C,ne,-88.4524,42.3244
IL,ILX,McLean,17113,C,cc,-88.8473,40.4908
IL,ILX,Macon,17115,C,cc,-88.9617,39.8599
IL,LSX,Macoupin,17117,C,sw,-89.9244,39.261
IL,LSX,Madison,17119,C,sw,-89.9051,38.8299
IL,LSX,Marion,17121,C,sc,-88.919,38.6496
IL,ILX,Marshall,17123,C,cc,-89.3448,41.0332
IL,ILX,Mason,17125,C,cc,-89.9168,40.2397
IL,PAH,Massac,17127,C,ss,-88.7078,37.219
IL,LOT,Winnebago,17201,C,nc,-89.1609,42.3363
IL,ILX,Woodford,17203,C,cc,-89.2111,40.7882
IL,LOT,Grundy,17063,C,ne,-88.4185,41.285
IL,LSX,Adams,17001,C,wc,-91.1886,39.9878
IL,PAH,Alexander,17003,C,ss,-89.3376,37.1915
IL,LSX,Bond,17005,C,sc,-89.4356,38.8868
IL,LOT,Boone,17007,C,nc,-88.8234,42.3231
IL,LSX,Brown,17009,C,wc,-90.7504,39.9618
IL,DVN,Bureau,17011,C,nc,-89.5287,41.4041
IL,LSX,Calhoun,17013,C,sw,-90.6675,39.1692
IL,DVN,Carroll,17015,C,nw,-89.9345,42.0688
IL,ILX,Cass,17017,C,wc,-90.2474,39.9736
IL,ILX,Champaign,17019,C,ec,-88.1991,40.1401
IL,ILX,Christian,17021,C,cc,-89.2773,39.5458
IL,ILX,Clark,17023,C,ec,-87.7878,39.3335
IL,ILX,Clay,17025,C,sc,-88.4902,38.7542
IL,LSX,Clinton,17027,C,sc,-89.4224,38.6065
IL,ILX,Coles,17029,C,ec,-88.2218,39.5202
IL,ILX,Crawford,17033,C,ec,-87.7595,39.0028
IL,ILX,Cumberland,17035,C,ec,-88.2403,39.2732
IL,LOT,De Kalb,17037,C,nc,-88.7704,41.8934
IL,ILX,De Witt,17039,C,cc,-88.9041,40.1746
IL,ILX,Douglas,17041,C,ec,-88.2174,39.7695
IL,LOT,DuPage,17043,C,ne,-88.0857,41.852
IL,ILX,Edgar,17045,C,ec,-87.7456,39.6786
IL,PAH,Edwards,17047,C,se,-88.0532,38.4165
IL,ILX,Effingham,17049,C,sc,-88.5899,39.0597
IL,LSX,Greene,17061,C,sw,-90.3905,39.3562
IL,LOT,Ford,17053,C,ec,-88.2233,40.5972
IL,ILX,Menard,17129,C,cc,-89.8022,40.0274
IL,DVN,Mercer,17131,C,nw,-90.7414,41.2053
IL,LSX,Monroe,17133,C,sw,-90.1774,38.2785
IL,LSX,Montgomery,17135,C,sc,-89.4789,39.231
IL,ILX,Morgan,17137,C,wc,-90.2015,39.7156
IL,ILX,Moultrie,17139,C,cc,-88.6194,39.6413
IL,LOT,Ogle,17141,C,nc,-89.3207,42.0427
IL,ILX,Peoria,17143,C,cc,-89.76,40.7881
IL,PAH,Perry,17145,C,sc,-89.3671,38.0838
IL,ILX,Piatt,17147,C,cc,-88.5911,40.0104
IL,LSX,Pike,17149,C,wc,-90.8862,39.6225
IL,PAH,Pope,17151,C,ss,-88.5615,37.4127
IL,PAH,Pulaski,17153,C,ss,-89.1267,37.2228
IL,DVN,Putnam,17155,C,nc,-89.2858,41.2045
IL,LSX,Fayette,17051,C,sc,-89.0242,39.0002
IL,LSX,Randolph,17157,C,sw,-89.8253,38.0521
IL,ILX,Richland,17159,C,se,-88.085,38.7124
IL,DVN,Rock Island,17161,C,nw,-90.5674,41.4673
IL,LSX,St. Clair,17163,C,sw,-89.9284,38.4703
IL,PAH,Saline,17165,C,ss,-88.5408,37.7533
IL,ILX,Sangamon,17167,C,cc,-89.6589,39.7582
IL,ILX,Schuyler,17169,C,wc,-90.6151,40.158
IL,ILX,Scott,17171,C,wc,-90.4747,39.6442
IL,ILX,Shelby,17173,C,cc,-88.8055,39.3911
IL,ILX,Stark,17175,C,nc,-89.7975,41.0934
IL,DVN,Stephenson,17177,C,nw,-89.6625,42.3517
IL,ILX,Tazewell,17179,C,cc,-89.5134,40.5075
IL,PAH,Union,17181,C,ss,-89.2551,37.4712
IL,ILX,Vermilion,17183,C,ec,-87.7329,40.1836
IL,PAH,Wabash,17185,C,se,-87.8443,38.4461
IL,DVN,Warren,17187,C,wc,-90.615,40.8488
IL,LSX,Washington,17189,C,sc,-89.4105,38.3522
IL,PAH,Wayne,17191,C,sc,-88.4256,38.4295
IL,PAH,White,17193,C,se,-88.1795,38.0875
IL,DVN,Whiteside,17195,C,nw,-89.9141,41.7564
IL,LOT,Will,17197,C,ne,-87.9787,41.445
IL,PAH,Williamson,17199,C,ss,-88.9299,37.7303
IL,PAH,Franklin,17055,C,sc,-88.9242,37.9923
IL,ILX,Fulton,17057,C,wc,-90.2075,40.4728
IL,PAH,Gallatin,17059,C,ss,-88.2305,37.7628
IL,DVN,Henderson,17071,C,wc,-90.9251,40.8181
IL,PAH,Hardin,17069,C,ss,-88.2669,37.5182
IL,DVN,Hancock,17067,C,wc,-91.1647,40.4037
IL,PAH,Hamilton,17065,C,sc,-88.5391,38.0816
IL,LOT,Lee,17103,C,nc,-89.3005,41.7461
IL,ILX,Knox,17095,C,wc,-90.2133,40.9318
IL,LOT,Lake,17097,C,ne,-88.0036,42.3231
IL,LOT,Cook,17031,C,ne,-87.8167,41.8399
IL,ILX,Jasper,17079,C,se,-88.1538,39.01
IN,PAH,Vanderburgh,18163,C,sw,-87.5857,38.0254
IN,ILN,Union,18161,E,ec,-84.9251,39.6255
IN,IND,Tipton,18159,E,cc,-86.0519,40.3114
IN,IND,Tippecanoe,18157,E,wc,-86.8941,40.3886
IN,ILN,Switzerland,18155,E,se,-85.037,38.8262
IN,IND,Sullivan,18153,E,sw,-87.4146,39.0888
IN,IWX,Steuben,18151,E,ne,-85.0008,41.6439
IN,IWX,Starke,18149,C,nw,-86.6478,41.281
IN,PAH,Spencer,18147,C,sw,-87.0077,38.0142
IN,IND,Shelby,18145,E,cc,-85.7918,39.5236
IN,LMK,Scott,18143,E,sc,-85.7474,38.6851
IN,IWX,St. Joseph,18141,E,nc,-86.2898,41.6167
IN,IND,Rush,18139,E,cc,-85.4658,39.6199
IN,LMK,Washington,18175,E,sc,-86.1053,38.6
IN,IND,Randolph,18135,E,ec,-85.0114,40.1576
IN,IND,Putnam,18133,E,wc,-86.845,39.6663
IN,IWX,Pulaski,18131,E,nw,-86.6989,41.0419
IN,PAH,Posey,18129,C,sw,-87.8684,38.0218
IN,LOT,Porter,18127,C,nw,-87.0672,41.4605
IN,PAH,Pike,18125,E,sw,-87.2322,38.3988
IN,LMK,Perry,18123,C,sc,-86.638,38.0797
IN,IND,Parke,18121,E,wc,-87.2063,39.7736
IN,IND,Owen,18119,E,wc,-86.8376,39.3129
IN,LMK,Orange,18117,E,sc,-86.4951,38.5418
IN,ILN,Ohio,18115,E,se,-84.965,38.9501
IN,IWX,Noble,18113,E,ne,-85.4174,41.3986
IN,LOT,Newton,18111,C,nw,-87.3975,40.9559
IN,IND,Morgan,18109,E,cc,-86.4462,39.4815
IN,IND,Montgomery,18107,E,wc,-86.8933,40.0404
IN,IND,Monroe,18105,E,sc,-86.5231,39.1609
IN,IWX,Miami,18103,E,nc,-86.0451,40.7695
IN,IND,Martin,18101,E,sw,-86.8031,38.708
IN,IND,Warren,18171,E,wc,-87.3533,40.3469
IN,IWX,Wabash,18169,E,nc,-85.794,40.8457
IN,IND,Vigo,18167,E,wc,-87.39,39.4306
IN,IND,Vermillion,18165,E,wc,-87.464,39.8538
IN,IWX,Marshall,18099,E,nc,-86.2618,41.325
IN,IND,Marion,18097,E,cc,-86.1384,39.7816
IN,IND,Madison,18095,E,cc,-85.7194,40.1617
IN,IND,Lawrence,18093,E,sc,-86.4834,38.8412
IN,IWX,Lagrange,18087,E,ne,-85.4265,41.6427
IN,IWX,Kosciusko,18085,E,nc,-85.8607,41.2441
IN,IND,Knox,18083,E,sw,-87.418,38.6891
IN,IND,Johnson,18081,E,cc,-86.1017,39.4899
IN,IND,Jennings,18079,E,se,-85.6281,38.9969
IN,LMK,Jefferson,18077,E,sc,-85.4385,38.7858
IN,IWX,Jay,18075,E,ec,-85.0057,40.438
IN,IND,Jackson,18071,E,sc,-86.0376,38.9064
IN,IWX,Huntington,18069,E,ne,-85.4881,40.8291
IN,IND,Howard,18067,E,cc,-86.117,40.4836
IN,IND,Henry,18065,E,ec,-85.3964,39.931
IN,IND,Hendricks,18063,E,cc,-86.51,39.7695
IN,LMK,Harrison,18061,E,sc,-86.1113,38.1952
IN,IND,Hancock,18059,E,cc,-85.7732,39.8235
IN,IND,Hamilton,18057,E,cc,-86.052,40.0725
IN,IND,Greene,18055,E,sw,-86.962,39.0364
IN,IWX,Grant,18053,E,cc,-85.6548,40.5158
IN,PAH,Gibson,18051,C,sw,-87.5846,38.3118
IN,IWX,Fulton,18049,E,nc,-86.2636,41.047
IN,ILN,Franklin,18047,E,se,-85.0603,39.4148
IN,IND,Fountain,18045,E,wc,-87.2419,40.1209
IN,LMK,Floyd,18043,E,sc,-85.9068,38.3194
IN,IWX,Adams,18001,E,ne,-84.9366,40.7456
IN,IWX,Allen,18003,E,ne,-85.0665,41.0908
IN,IND,Bartholomew,18005,E,cc,-85.8977,39.2059
IN,LOT,Benton,18007,E,nw,-87.3109,40.6063
IN,IWX,Blackford,18009,E,ec,-85.3248,40.4735
IN,IND,Boone,18011,E,cc,-86.4687,40.0508
IN,IND,Brown,18013,E,sc,-86.2274,39.1962
IN,IND,Carroll,18015,E,nc,-86.5635,40.5829
IN,IWX,Cass,18017,E,nc,-86.346,40.7615
IN,LMK,Clark,18019,E,sc,-85.7073,38.4773
IN,IWX,Whitley,18183,E,ne,-85.5052,41.1394
IN,IND,Clinton,18023,E,cc,-86.4752,40.3017
IN,LMK,Crawford,18025,E,sc,-86.4517,38.2923
IN,IND,Daviess,18027,E,sw,-87.0721,38.7024
IN,ILN,Dearborn,18029,E,se,-84.9733,39.1453
IN,IND,Decatur,18031,E,cc,-85.5013,39.3069
IN,IWX,De Kalb,18033,E,ne,-84.9991,41.3976
IN,IND,Delaware,18035,E,ec,-85.3969,40.2275
IN,LMK,Dubois,18037,E,sc,-86.8798,38.3643
IN,IWX,Elkhart,18039,E,nc,-85.8587,41.5974
IN,ILN,Fayette,18041,E,ec,-85.1787,39.6401
IN,ILN,Wayne,18177,E,ec,-85.0099,39.8644
IN,IWX,Wells,18179,E,ne,-85.2212,40.7291
IN,IWX,White,18181,E,nw,-86.8654,40.7499
IN,IND,Clay,18021,E,wc,-87.1158,39.3928
IN,PAH,Warrick,18173,C,sw,-87.2721,38.0922
IN,ILN,Ripley,18137,E,se,-85.2624,39.1034
IN,LOT,Lake,18089,C,nw,-87.3817,41.4156
IN,IWX,La Porte,18091,C,nw,-86.74,41.546
IN,LOT,Jasper,18073,C,nw,-87.1162,41.023
KS,DDC,Grant,20067,C,sw,-101.308,37.5622
KS,TOP,Washington,20201,C,nc,-97.0874,39.7842
KS,GLD,Wichita,20203,C,wc,-101.3474,38.4821
KS,ICT,Wilson,20205,C,se,-95.7434,37.5593
KS,ICT,Woodson,20207,C,se,-95.7402,37.8867
KS,TOP,Wabaunsee,20197,C,ec,-96.2049,38.9533
KS,GLD,Wallace,20199,M,wc,-101.7636,38.9166
KS,DDC,Trego,20195,C,wc,-99.8729,38.9143
KS,GLD,Thomas,20193,C,nw,-101.0555,39.3509
KS,ICT,Sumner,20191,C,sc,-97.4765,37.2373
KS,DDC,Stevens,20189,C,sw,-101.3121,37.1924
KS,DDC,Stanton,20187,C,sw,-101.7842,37.563
KS,DDC,Stafford,20185,C,sc,-98.7175,38.0311
KS,GID,Smith,20183,C,nc,-98.7855,39.7851
KS,GLD,Sherman,20181,M,nw,-101.72,39.3515
KS,GLD,Sheridan,20179,C,nw,-100.4418,39.3503
KS,TOP,Shawnee,20177,C,ec,-95.7564,39.0415
KS,DDC,Seward,20175,C,sw,-100.8513,37.1933
KS,ICT,Sedgwick,20173,C,sc,-97.4611,37.6848
KS,DDC,Scott,20171,C,wc,-100.9069,38.4822
KS,ICT,Saline,20169,C,cc,-97.65,38.7839
KS,ICT,Russell,20167,C,cc,-98.7623,38.9149
KS,DDC,Rush,20165,C,cc,-99.3092,38.5233
KS,GID,Rooks,20163,C,nc,-99.3251,39.3502
KS,TOP,Riley,20161,C,ne,-96.7352,39.2965
KS,ICT,Rice,20159,C,cc,-98.2011,38.3471
KS,TOP,Republic,20157,C,nc,-97.6505,39.8278
KS,ICT,Reno,20155,C,sc,-98.0861,37.9529
KS,GLD,Rawlins,20153,C,nw,-101.0757,39.7852
KS,DDC,Pratt,20151,C,sc,-98.7396,37.6478
KS,TOP,Pottawatomie,20149,C,ne,-96.3425,39.379
KS,GID,Phillips,20147,C,nc,-99.3469,39.7845
KS,DDC,Pawnee,20145,C,sc,-99.2368,38.1814
KS,TOP,Ottawa,20143,C,nc,-97.6503,39.1326
KS,GID,Osborne,20141,C,nc,-98.7679,39.3504
KS,TOP,Osage,20139,C,ec,-95.7269,38.6524
KS,GLD,Norton,20137,C,nw,-99.9034,39.7844
KS,DDC,Ness,20135,C,wc,-99.9162,38.4795
KS,ICT,Neosho,20133,C,se,-95.3068,37.5586
KS,TOP,Nemaha,20131,C,ne,-96.0141,39.7835
KS,DDC,Morton,20129,C,sw,-101.7993,37.1914
KS,TOP,Morris,20127,C,ec,-96.6499,38.6875
KS,ICT,Montgomery,20125,C,se,-95.7429,37.1925
KS,GID,Mitchell,20123,C,nc,-98.2095,39.3933
KS,EAX,Miami,20121,C,ec,-94.8381,38.5636
KS,DDC,Meade,20119,C,sw,-100.3662,37.2383
KS,TOP,Marshall,20117,C,ne,-96.5229,39.7836
KS,ICT,Marion,20115,C,cc,-97.0969,38.3588
KS,ICT,McPherson,20113,C,cc,-97.648,38.3916
KS,TOP,Lyon,20111,C,ec,-96.1527,38.4563
KS,GLD,Logan,20109,C,wc,-101.1485,38.9173
KS,EAX,Linn,20107,C,ec,-94.8429,38.2122
KS,ICT,Lincoln,20105,C,cc,-98.2078,39.0453
KS,EAX,Leavenworth,20103,C,ne,-95.0379,39.1993
KS,DDC,Lane,20101,C,wc,-100.4664,38.4814
KS,ICT,Labette,20099,C,se,-95.2976,37.1913
KS,DDC,Kiowa,20097,C,sc,-99.286,37.5582
KS,ICT,Kingman,20095,C,sc,-98.1364,37.5589
KS,DDC,Kearny,20093,C,sw,-101.3199,38.0002
KS,EAX,Johnson,20091,C,ec,-94.8223,38.8838
KS,GID,Jewell,20089,C,nc,-98.2184,39.7847
KS,TOP,Jefferson,20087,C,ne,-95.3834,39.2358
KS,TOP,Jackson,20085,C,ne,-95.7937,39.417
KS,DDC,Hodgeman,20083,C,sw,-99.8979,38.0875
KS,DDC,Haskell,20081,C,sw,-100.8712,37.5623
KS,ICT,Harvey,20079,C,sc,-97.4273,38.0432
KS,ICT,Harper,20077,C,sc,-98.0755,37.1916
KS,DDC,Hamilton,20075,M,sw,-101.7913,37.9991
KS,ICT,Greenwood,20073,C,se,-96.2327,37.8778
KS,GLD,Greeley,20071,M,wc,-101.806,38.4805
KS,DDC,Gray,20069,C,sw,-100.4378,37.7382
KS,EAX,Wyandotte,20209,C,ne,-94.7646,39.1145
KS,ICT,Allen,20001,C,se,-95.3014,37.8858
KS,TOP,Anderson,20003,C,ec,-95.2933,38.2143
KS,EAX,Atchison,20005,C,ne,-95.3129,39.5319
KS,DDC,Barber,20007,C,sc,-98.6848,37.2289
KS,ICT,Barton,20009,C,cc,-98.7565,38.479
KS,SGF,Bourbon,20011,C,se,-94.8493,37.8552
KS,TOP,Brown,20013,C,ne,-95.5642,39.8266
KS,ICT,Butler,20015,C,sc,-96.8391,37.7813
KS,ICT,Chase,20017,C,ec,-96.594,38.3021
KS,ICT,Chautauqua,20019,C,se,-96.2453,37.1501
KS,SGF,Cherokee,20021,C,se,-94.8462,37.1693
KS,GLD,Cheyenne,20023,C,nw,-101.7311,39.7858
KS,DDC,Clark,20025,C,sw,-99.8203,37.2355
KS,TOP,Clay,20027,C,nc,-97.1651,39.3497
KS,TOP,Cloud,20029,C,nc,-97.6495,39.4804
KS,TOP,Coffey,20031,C,ec,-95.7342,38.237
KS,DDC,Comanche,20033,C,sc,-99.2719,37.1913
KS,ICT,Cowley,20035,C,sc,-96.8375,37.2378
KS,SGF,Crawford,20037,C,se,-94.8518,37.5073
KS,GLD,Decatur,20039,C,nw,-100.4599,39.7847
KS,TOP,Dickinson,20041,C,cc,-97.1527,38.8664
KS,EAX,Doniphan,20043,C,ne,-95.147,39.7885
KS,TOP,Douglas,20045,C,ec,-95.2924,38.8845
KS,DDC,Edwards,20047,C,sc,-99.312,37.8876
KS,ICT,Elk,20049,C,se,-96.2441,37.4537
KS,DDC,Ellis,20051,C,cc,-99.3173,38.9148
KS,ICT,Ellsworth,20053,C,cc,-98.2048,38.6966
KS,DDC,Finney,20055,C,sw,-100.7369,38.0444
KS,DDC,Ford,20057,C,sw,-99.8879,37.6917
KS,TOP,Franklin,20059,C,ec,-95.2859,38.5646
KS,TOP,Geary,20061,C,ec,-96.7526,39.0024
KS,GLD,Gove,20063,C,wc,-100.4829,38.916
KS,GLD,Graham,20065,C,nw,-99.8833,39.3497
KY,LMK,Madison,21151,E,cc,-84.278,37.7202
KY,JKL,Magoffin,21153,E,se,-83.0648,37.7066
KY,LMK,Marion,21155,E,cc,-85.2696,37.5525
KY,PAH,Marshall,21157,C,ww,-88.3293,36.8834
KY,JKL,Martin,21159,E,ne,-82.5132,37.8016
KY,ILN,Mason,21161,E,nn,-83.824,38.5952
KY,LMK,Meade,21163,E,cc,-86.2169,37.9695
KY,JKL,Menifee,21165,E,ec,-83.5989,37.9414
KY,LMK,Mercer,21167,E,cc,-84.8744,37.8111
KY,LMK,Metcalfe,21169,C,sc,-85.6291,36.9905
KY,LMK,Monroe,21171,C,sc,-85.7164,36.7122
KY,JKL,Montgomery,21173,E,ec,-83.9132,38.0336
KY,JKL,Morgan,21175,E,se,-83.2589,37.9223
KY,PAH,Muhlenberg,21177,C,sc,-87.1421,37.2157
KY,LMK,Nelson,21179,E,cc,-85.4662,37.8051
KY,LMK,Nicholas,21181,E,cc,-84.0153,38.3356
KY,LMK,Ohio,21183,C,cc,-86.849,37.4783
KY,LMK,Oldham,21185,E,cc,-85.4485,38.3995
KY,ILN,Owen,21187,E,nn,-84.828,38.5197
KY,JKL,Owsley,21189,E,se,-83.6832,37.4192
KY,ILN,Pendleton,21191,E,nn,-84.3602,38.6957
KY,JKL,Perry,21193,E,se,-83.2215,37.2443
KY,JKL,Pike,21195,E,se,-82.3958,37.469
KY,JKL,Powell,21197,E,ec,-83.8238,37.8312
KY,JKL,Pulaski,21199,E,sc,-84.5771,37.1039
KY,ILN,Robertson,21201,E,nn,-84.0521,38.5188
KY,JKL,Rockcastle,21203,E,sc,-84.316,37.3652
KY,JKL,Rowan,21205,E,ec,-83.4211,38.1963
KY,LMK,Russell,21207,C,sc,-85.0586,36.9911
KY,LMK,Scott,21209,E,cc,-84.5839,38.2915
KY,LMK,Shelby,21211,E,cc,-85.1948,38.2155
KY,LMK,Simpson,21213,C,sc,-86.5823,36.7419
KY,LMK,Spencer,21215,E,cc,-85.3279,38.0325
KY,LMK,Taylor,21217,E,cc,-85.3279,37.3664
KY,PAH,Todd,21219,C,sc,-87.1791,36.8356
KY,PAH,Trigg,21221,C,ww,-87.8734,36.8064
KY,LMK,Trimble,21223,E,cc,-85.3374,38.613
KY,PAH,Union,21225,C,nw,-87.9453,37.6584
KY,LMK,Warren,21227,C,sc,-86.4239,36.9936
KY,LMK,Washington,21229,E,cc,-85.1747,37.7534
KY,JKL,Wayne,21231,E,sc,-84.8285,36.8013
KY,PAH,Webster,21233,C,nw,-87.6832,37.5183
KY,JKL,Whitley,21235,E,sc,-84.1452,36.7582
KY,JKL,Wolfe,21237,E,se,-83.4931,37.7393
KY,LMK,Woodford,21239,E,cc,-84.7435,38.0423
KY,JKL,Lee,21129,E,se,-83.7163,37.5947
KY,PAH,Fulton,21075,C,ww,-89.1873,36.5541
KY,LMK,Adair,21001,C,sc,-85.2805,37.1041
KY,LMK,Allen,21003,C,sc,-86.1904,36.7513
KY,LMK,Anderson,21005,E,cc,-84.9909,38.004
KY,PAH,Ballard,21007,C,ww,-88.9992,37.0584
KY,LMK,Barren,21009,C,sc,-85.9336,36.9656
KY,JKL,Bath,21011,E,ec,-83.7428,38.1449
KY,JKL,Bell,21013,E,se,-83.674,36.7307
KY,ILN,Boone,21015,E,nn,-84.7279,38.97
KY,LMK,Bourbon,21017,E,cc,-84.2171,38.2068
KY,RLX,Boyd,21019,E,ne,-82.6877,38.3596
KY,LMK,Boyle,21021,E,cc,-84.8667,37.6244
KY,ILN,Bracken,21023,E,nn,-84.0901,38.6888
KY,JKL,Breathitt,21025,E,se,-83.3241,37.5216
KY,LMK,Breckinridge,21027,C,cc,-86.4293,37.7732
KY,LMK,Bullitt,21029,E,cc,-85.6959,37.97
KY,LMK,Butler,21031,C,sc,-86.6816,37.2074
KY,PAH,Caldwell,21033,C,ww,-87.8679,37.1453
KY,PAH,Calloway,21035,C,ww,-88.2723,36.6211
KY,ILN,Campbell,21037,E,nn,-84.3793,38.9465
KY,PAH,Carlisle,21039,C,ww,-88.9709,36.8532
KY,ILN,Carroll,21041,E,nn,-85.1235,38.6679
KY,RLX,Carter,21043,E,ne,-83.0495,38.3181
KY,LMK,Casey,21045,E,cc,-84.9283,37.3223
KY,PAH,Christian,21047,C,sc,-87.4904,36.8941
KY,LMK,Clark,21049,E,cc,-84.1475,37.9709
KY,JKL,Clay,21051,E,se,-83.7146,37.1598
KY,PAH,Hopkins,21107,C,nw,-87.541,37.3088
KY,PAH,Crittenden,21055,C,ww,-88.0972,37.3527
KY,LMK,Cumberland,21057,C,sc,-85.3884,36.7866
KY,PAH,Daviess,21059,C,nw,-87.0873,37.7318
KY,LMK,Edmonson,21061,C,sc,-86.2385,37.2087
KY,JKL,Elliott,21063,E,ec,-83.0976,38.1179
KY,JKL,Estill,21065,E,ec,-83.9643,37.6924
KY,LMK,Fayette,21067,E,cc,-84.4588,38.0423
KY,JKL,Fleming,21069,E,ec,-83.6967,38.3701
KY,JKL,Floyd,21071,E,se,-82.7457,37.5572
KY,LMK,Franklin,21073,E,cc,-84.877,38.2391
KY,ILN,Gallatin,21077,E,nn,-84.8592,38.7569
KY,LMK,Garrard,21079,E,cc,-84.5376,37.6396
KY,ILN,Grant,21081,E,nn,-84.6245,38.6488
KY,PAH,Graves,21083,C,ww,-88.6512,36.723
KY,LMK,Grayson,21085,C,cc,-86.3439,37.4608
KY,LMK,Green,21087,C,cc,-85.5531,37.2639
KY,RLX,Greenup,21089,E,ne,-82.9223,38.5456
KY,LMK,Hancock,21091,C,cc,-86.778,37.8415
KY,LMK,Hardin,21093,E,cc,-85.9635,37.6979
KY,JKL,Harlan,21095,E,se,-83.2179,36.857
KY,LMK,Harrison,21097,E,cc,-84.3315,38.4418
KY,PAH,Hickman,21105,C,ww,-88.9761,36.6781
KY,LMK,Henry,21103,E,cc,-85.1189,38.4484
KY,PAH,Henderson,21101,C,nw,-87.5729,37.7961
KY,LMK,Hart,21099,C,cc,-85.8847,37.2999
KY,JKL,Laurel,21125,E,sc,-84.1178,37.1107
KY,LMK,Clinton,21053,C,sc,-85.1361,36.7275
KY,LMK,Jefferson,21111,E,cc,-85.6595,38.1872
KY,LMK,Jessamine,21113,E,cc,-84.5809,37.872
KY,JKL,Johnson,21115,E,ne,-82.8314,37.8467
KY,ILN,Kenton,21117,E,nn,-84.5331,38.9334
KY,JKL,Knott,21119,E,se,-82.954,37.354
KY,JKL,Knox,21121,E,se,-83.8539,36.8907
KY,LMK,Larue,21123,E,cc,-85.698,37.5457
KY,JKL,Jackson,21109,E,se,-84.0058,37.4198
KY,RLX,Lawrence,21127,E,ne,-82.7347,38.0679
KY,JKL,Leslie,21131,E,se,-83.3811,37.0941
KY,JKL,Letcher,21133,E,se,-82.8553,37.1212
KY,ILN,Lewis,21135,E,ne,-83.3781,38.5317
KY,LMK,Lincoln,21137,E,cc,-84.6607,37.4552
KY,PAH,Livingston,21139,C,ww,-88.3536,37.2097
KY,LMK,Logan,21141,C,sc,-86.8789,36.8597
KY,PAH,Lyon,21143,C,ww,-88.0832,37.0191
KY,PAH,McCracken,21145,C,ww,-88.7127,37.0539
KY,JKL,McCreary,21147,E,sc,-84.4841,36.7371
KY,PAH,McLean,21149,C,nw,-87.2636,37.5291
LA,LCH,St. Mary,22101,C,sc,-91.4494,29.7196
LA,SHV,Union,22111,C,nc,-92.3748,32.8319
LA,JAN,Tensas,22107,C,ne,-91.34,32.0016
LA,LCH,St. Landry,22097,C,cc,-92.0058,30.5989
LA,LIX,St. James,22093,C,se,-90.7962,30.0263
LA,SHV,Sabine,22085,C,nw,-93.5547,31.564
LA,JAN,Richland,22083,C,ne,-91.7636,32.4177
LA,SHV,Red River,22081,C,nw,-93.34,32.0933
LA,LCH,Rapides,22079,C,cc,-92.5332,31.1986
LA,SHV,Ouachita,22073,C,nc,-92.1545,32.4785
LA,SHV,Natchitoches,22069,C,nw,-93.0963,31.7236
LA,JAN,Morehouse,22067,C,ne,-91.8017,32.8205
LA,SHV,Lincoln,22061,C,nc,-92.6647,32.6016
LA,SHV,La Salle,22059,C,nc,-92.1604,31.6767
LA,LCH,Lafayette,22055,C,sc,-92.0639,30.2063
LA,SHV,Jackson,22049,C,nc,-92.5577,32.302
LA,SHV,Grant,22043,C,nc,-92.5594,31.5997
LA,JAN,Franklin,22041,C,ne,-91.6738,32.1333
LA,LCH,Evangeline,22039,C,cc,-92.4059,30.729
LA,JAN,East Carroll,22035,C,ne,-91.235,32.7325
LA,SHV,De Soto,22031,C,nw,-93.7373,32.0554
LA,JAN,Concordia,22029,C,ne,-91.6397,31.4458
LA,SHV,Claiborne,22027,C,nw,-92.9957,32.8226
LA,JAN,Catahoula,22025,C,ne,-91.8471,31.6661
LA,SHV,Caldwell,22021,C,nc,-92.1167,32.0922
LA,SHV,Caddo,22017,C,nw,-93.8821,32.5797
LA,SHV,Bossier,22015,C,nw,-93.6052,32.6795
LA,SHV,Bienville,22013,C,nw,-93.056,32.3472
LA,LCH,Beauregard,22011,C,sw,-93.3434,30.6485
LA,LIX,Ascension,22005,C,se,-90.9113,30.2035
LA,LCH,Allen,22003,C,sw,-92.8279,30.6528
LA,LCH,Acadia,22001,C,sw,-92.412,30.2906
LA,JAN,Madison,22065,C,ne,-91.2427,32.3643
LA,LIX,St. John The Baptist,22095,C,se,-90.5462,30.0792
LA,SHV,Webster,22119,C,nw,-93.335,32.7135
LA,LIX,West Baton Rouge,22121,C,se,-91.3134,30.4634
LA,JAN,West Carroll,22123,C,ne,-91.4567,32.7885
LA,SHV,Winn,22127,C,nc,-92.6368,31.9442
LA,LCH,Vernon,22115,C,wc,-93.1842,31.1083
LA,LIX,St. Charles,22089,C,se,-90.3631,29.8836
LA,LIX,St. Helena,22091,C,se,-90.7103,30.822
LA,LIX,Pointe Coupee,22077,C,se,-91.6009,30.7097
LA,LIX,East Feliciana,22037,C,se,-91.0455,30.8451
LA,LIX,East Baton Rouge,22033,C,se,-91.0957,30.5383
LA,LCH,Avoyelles,22009,C,cc,-92.0013,31.0762
LA,LIX,Livingston,22063,C,se,-90.7393,30.4507
LA,LIX,West Feliciana,22125,C,se,-91.42,30.8798
LA,LCH,Calcasieu,22019,C,sw,-93.3579,30.2292
LA,LCH,Jefferson Davis,22053,C,sw,-92.8138,30.2669
LA,LIX,Iberville,22047,C,se,-91.3494,30.2585
LA,LCH,Vermilion,22113,C,sw,-92.3241,29.8455
LA,LCH,Iberia,22045,C,sc,-91.7307,29.8941
LA,LIX,St. Tammany,22103,C,se,-89.9401,30.4481
LA,LIX,Orleans,22071,C,se,-89.9037,30.0385
LA,LIX,Lafourche,22057,C,se,-90.4291,29.5682
LA,LIX,Jefferson,22051,C,se,-90.1174,29.7299
LA,LIX,Plaquemines,22075,C,se,-89.6553,29.4705
LA,LIX,Assumption,22007,C,se,-91.0626,29.9006
LA,LCH,St. Martin,22099,C,sc,-91.6083,30.1291
LA,LIX,Terrebonne,22109,C,se,-90.8659,29.4206
LA,LCH,Cameron,22023,C,sw,-93.1618,29.8717
LA,LIX,Washington,22117,C,se,-90.0405,30.8533
LA,LIX,St. Bernard,22087,C,se,-89.6178,29.8628
LA,LIX,Tangipahoa,22105,C,se,-90.4118,30.6453
MA,BOX,Nantucket,25019,E,se,-70.0744,41.2781
MA,BOX,Dukes,25007,E,se,-70.6561,41.3966
MA,BOX,Middlesex,25017,E,ne,-71.3918,42.4855
MA,BOX,Worcester,25027,E,cc,-71.9077,42.3514
MA,ALY,Berkshire,25003,E,ww,-73.2064,42.3706
MA,BOX,Franklin,25011,E,ww,-72.5919,42.5831
MA,BOX,Hampshire,25015,E,ww,-72.6638,42.3401
MA,BOX,Norfolk,25021,E,ee,-71.2248,42.155
MA,BOX,Essex,25009,E,ne,-70.9581,42.6729
MA,BOX,Plymouth,25023,E,se,-70.8129,41.9547
MA,BOX,Hampden,25013,E,ww,-72.6316,42.1351
MA,BOX,Suffolk,25025,E,ee,-71.0818,42.3308
MA,BOX,Barnstable,25001,E,se,-70.2982,41.7257
MA,BOX,Bristol,25005,E,se,-71.1153,41.802
MD,PBZ,Garrett,24023,E,ww,-79.2739,39.5286
MD,LWX,Carroll,24013,E,nc,-77.0228,39.5631
MD,LWX,Howard,24027,E,cc,-76.9315,39.251
MD,LWX,Allegany,24001,E,ww,-78.6989,39.6215
,,,,,,,
MD,LWX,Baltimore,24005,E,nn,-76.4054,39.295
,,,,,,,
MD,LWX,Calvert,24009,E,ss,-76.5696,38.5529
,,,,,,,
MD,PHI,Cecil,24015,E,ne,-75.974,39.5101
,,,,,,,
MD,LWX,Charles,24017,E,ss,-76.9899,38.5077
,,,,,,,
MD,AKQ,Dorchester,24019,E,se,-76.1372,38.5492
,,,,,,,
MD,LWX,Harford,24025,E,nn,-76.3194,39.5616
,,,,,,,
MD,PHI,Kent,24029,E,ne,-76.1294,39.1885
,,,,,,,
,,,,,,,
MD,LWX,Frederick,24021,E,nc,-77.3981,39.4722
MD,LWX,Montgomery,24031,E,cc,-77.2041,39.1363
MD,LWX,Washington,24043,E,nc,-77.8142,39.6037
MD,LWX,Prince Georges,24033,E,cc,-76.8436,38.8313
,,,,,,,
MD,PHI,Queen Anne's,24035,E,ne,-76.0131,39.0738
,,,,,,,
MD,LWX,St. Marys,24037,E,ss,-76.6202,38.2729
,,,,,,,
MD,AKQ,Somerset,24039,E,se,-75.7449,38.119
,,,,,,,
MD,PHI,Talbot,24041,E,ee,-76.1393,38.7175
,,,,,,,
MD,AKQ,Wicomico,24045,E,se,-75.8431,38.252
,,,,,,,
MD,AKQ,Worcester,24047,E,se,-75.3568,38.2186
MD,PHI,Caroline,24011,E,ee,-75.8317,38.8717
,,,,,,,
MD,LWX,Baltimore City,24510,E,nn,-76.5758,39.2531
MI,GRR,Mason,26105,E,wc,-86.2497,43.9954
ME,CAR,Washington,23029,E,se,-67.6361,45.0363
ME,GYX,Androscoggin,23001,E,sw,-70.2045,44.1654
ME,GYX,Knox,23013,E,sc,-69.173,44.15
ME,GYX,Sagadahoc,23023,E,sc,-69.8613,43.9705
ME,GYX,Lincoln,23015,E,sc,-69.5431,44.0752
ME,CAR,Piscataquis,23021,E,nc,-69.2835,45.838
ME,GYXCAR,Somerset,23025,E,wc,-69.9582,45.5138
ME,CAR,Aroostook,23003,E,nn,-68.5988,46.6588
ME,GYX,Oxford,23017,E,ww,-70.7555,44.499
ME,CAR,Penobscot,23019,E,ec,-68.6494,45.4006
ME,GYX,York,23031,E,sw,-70.7156,43.4796
ME,GYX,Cumberland,23005,E,sw,-70.4096,43.8487
ME,GYX,Franklin,23007,E,ww,-70.444,44.974
ME,GYX,Waldo,23027,E,sc,-69.1478,44.5037
ME,CAR,Hancock,23009,E,se,-68.3531,44.6749
ME,GYX,Kennebec,23011,E,sc,-69.7672,44.4093
MI,APX,Roscommon,26143,E,nn,-84.6116,44.3356
MI,DTX,Saginaw,26145,E,se,-84.0532,43.335
MI,IWX,St. Joseph,26149,E,sw,-85.5278,41.9145
MI,DTX,Shiawassee,26155,E,se,-84.1467,42.9537
MI,DTX,Washtenaw,26161,E,se,-83.8384,42.2534
MI,APX,Alcona,26001,E,nn,-83.5938,44.6854
MI,APX,Wexford,26165,E,nn,-85.5785,44.3384
MI,APX,Iosco,26069,E,nn,-83.636,44.3559
MI,GRR,Barry,26015,E,sw,-85.309,42.595
MI,IWX,Branch,26023,E,sw,-85.059,41.9161
MI,GRR,Calhoun,26025,E,sc,-85.0055,42.2466
MI,IWX,Cass,26027,E,sw,-85.9936,41.9153
MI,GRR,Clare,26035,E,cc,-84.8478,43.9879
MI,GRR,Clinton,26037,E,sc,-84.6015,42.9436
MI,APX,Crawford,26039,E,nn,-84.6103,44.6836
MI,MQT,Dickinson,26043,C,sr,-87.8704,46.0091
MI,GRR,Eaton,26045,E,sc,-84.8384,42.5961
MI,DTX,Genesee,26049,E,se,-83.7067,43.0217
MI,APX,Gladwin,26051,E,nn,-84.3882,43.9906
MI,GRR,Gratiot,26057,E,cc,-84.6048,43.2927
MI,IWX,Hillsdale,26059,E,se,-84.593,41.8878
MI,GRR,Ingham,26065,E,sc,-84.3736,42.5971
MI,GRR,Ionia,26067,E,sc,-85.0746,42.9451
MI,MQT,Iron,26071,C,sr,-88.5305,46.2087
MI,GRR,Isabella,26073,E,cc,-84.8467,43.6406
MI,GRR,Jackson,26075,E,sc,-84.4233,42.2485
MI,GRR,Kalamazoo,26077,E,sw,-85.5311,42.2454
MI,APX,Kalkaska,26079,E,nn,-85.0902,44.6846
MI,GRR,Kent,26081,E,sw,-85.5492,43.0322
MI,GRR,Lake,26085,E,wc,-85.8017,43.99
MI,DTX,Lapeer,26087,E,se,-83.2218,43.0901
MI,DTX,Lenawee,26091,E,se,-84.0664,41.8951
MI,DTX,Livingston,26093,E,se,-83.9115,42.603
MI,APX,Manistee,26101,E,nn,-86.0571,44.3332
MI,GRR,Mecosta,26107,E,cc,-85.3245,43.6409
MI,DTX,Midland,26111,E,se,-84.3879,43.6468
MI,APX,Missaukee,26113,E,nn,-85.0947,44.3373
MI,GRR,Montcalm,26117,E,cc,-85.1524,43.311
MI,APX,Montmorency,26119,E,nn,-84.1273,45.0276
MI,GRR,Newaygo,26123,E,wc,-85.8009,43.5542
MI,DTX,Oakland,26125,E,se,-83.3855,42.6604
MI,APX,Ogemaw,26129,E,nn,-84.1266,44.3349
MI,GRR,Osceola,26133,E,cc,-85.3252,43.9899
MI,APX,Oscoda,26135,E,nn,-84.1297,44.6817
MI,APX,Otsego,26137,E,nn,-84.5988,45.0214
MI,APX,Leelanau,26089,E,nn,-85.8123,44.9366
MI,IWX,Berrien,26021,E,sw,-86.4123,41.9546
MI,GRR,Van Buren,26159,E,sw,-86.0189,42.2513
MI,GRR,Allegan,26005,E,sw,-85.8884,42.5913
MI,APX,Alpena,26007,E,nn,-83.6277,45.0348
MI,DTX,Sanilac,26151,E,se,-82.8201,43.4235
MI,DTX,Macomb,26099,E,se,-82.9322,42.6956
MI,DTX,St. Clair,26147,E,se,-82.6823,42.9425
MI,MQT,Gogebic,26053,C,wu,-89.6944,46.4089
MI,DTX,Monroe,26115,E,se,-83.5373,41.9292
MI,DTX,Wayne,26163,E,se,-83.2865,42.284
MI,MQT,Keweenaw,26083,E,wu,-88.4287,47.6104
,,,,,,,
MI,GRR,Muskegon,26121,E,wc,-86.1481,43.2912
,,,,,,,
MI,GRR,Oceana,26127,E,wc,-86.2673,43.6407
,,,,,,,
MI,GRR,Ottawa,26139,E,sw,-86.1799,42.9435
,,,,,,,
MI,MQT,Baraga,26013,E,nr,-88.3652,46.6626
MI,MQT,Marquette,26103,E,nr,-87.6415,46.4314
MI,APX,Cheboygan,26031,E,nn,-84.4999,45.4468
MI,APX,Charlevoix,26029,E,nn,-85.1283,45.302
MI,APX,Grand Traverse,26055,E,nn,-85.559,44.6709
MI,MQT,Delta,26041,E,sr,-86.9244,45.9197
MI,MQT,Luce,26095,E,eu,-85.5443,46.4707
MI,APX,Mackinac,26097,E,ee,-85.0921,46.0812
MI,MQT,Schoolcraft,26153,E,er,-86.1995,46.1967
MI,APX,Presque Isle,26141,E,nn,-83.9173,45.3402
MI,MQT,Menominee,26109,C,sr,-87.5573,45.5792
MI,MQT,Alger,26003,E,nr,-86.6018,46.4099
MI,MQT,Ontonagon,26131,E,wu,-89.315,46.6644
MI,MQT,Houghton,26061,E,wu,-88.6918,46.8934
MI,APX,Antrim,26009,E,nn,-85.1377,45.0003
MI,APX,Arenac,26011,E,nn,-83.8948,44.0656
MI,DTX,Bay,26017,E,se,-83.9921,43.7072
MI,DTX,Tuscola,26157,E,se,-83.4168,43.4641
MI,DTX,Huron,26063,E,se,-83.0193,43.8333
MI,APX,Emmet,26047,E,nn,-84.8905,45.5205
MI,APX,Benzie,26019,E,nn,-86.0158,44.6395
NJ,OKX,Bergen,34003,E,ne,-73.9344,40.9001
MI,APX,Chippewa,26033,E,ee,-84.5921,46.3031
MN,FGF,Lake of the Woods,27077,C,nc,-94.9048,48.7718
MN,MPX,Lac qui Parle,27073,C,wc,-96.1735,44.9955
MN,MPX,Anoka,27003,C,ec,-93.2464,45.2732
MN,MPX,Benton,27009,C,cc,-93.9989,45.6991
MN,MPX,Brown,27015,C,sc,-94.7277,44.2421
MN,DLH,St. Louis,27137,C,ne,-92.4708,47.604
MN,MPX,Carver,27019,C,ec,-93.8025,44.8208
MN,MPX,Chippewa,27023,C,wc,-95.5666,45.0223
MN,MPX,Chisago,27025,C,ec,-92.9083,45.5025
MN,FSD,Cottonwood,27033,C,sw,-95.1812,44.0071
MN,DLH,Crow Wing,27035,C,ec,-94.0709,46.4824
MN,MPX,Dakota,27037,C,ec,-93.0656,44.6718
MN,ARX,Dodge,27039,C,se,-92.862,44.0225
MN,MPX,Douglas,27041,C,wc,-95.4535,45.9337
MN,MPX,Faribault,27043,C,sc,-93.9478,43.6739
MN,ARX,Fillmore,27045,C,se,-92.0901,43.674
MN,MPX,Freeborn,27047,C,sc,-93.3489,43.6738
MN,MPX,Goodhue,27049,C,se,-92.7225,44.4099
MN,FGF,Grant,27051,C,wc,-96.0121,45.934
MN,MPX,Hennepin,27053,C,ec,-93.4768,45.0045
MN,ARX,Houston,27055,C,se,-91.4929,43.6714
MN,FGF,Hubbard,27057,C,nc,-94.9166,47.1087
MN,MPX,Isanti,27059,C,ec,-93.2952,45.5615
MN,FSD,Jackson,27063,C,sw,-95.1541,43.6741
MN,MPX,Kanabec,27065,C,ec,-93.2935,45.9453
MN,MPX,Kandiyohi,27067,C,cc,-95.0048,45.1524
MN,FGF,Kittson,27069,C,nw,-96.7826,48.7766
MN,MPX,Le Sueur,27079,C,sc,-93.73,44.3714
MN,FSD,Lincoln,27081,C,sw,-96.267,44.4126
MN,FSD,Lyon,27083,C,sw,-95.839,44.4135
MN,MPX,McLeod,27085,C,cc,-94.2724,44.8235
MN,FGF,Mahnomen,27087,C,nw,-95.809,47.3252
MN,MPX,Martin,27091,C,sc,-94.5511,43.6742
MN,MPX,Meeker,27093,C,cc,-94.5274,45.1231
MN,MPX,Mille Lacs,27095,C,ec,-93.6301,45.938
MN,MPX,Morrison,27097,C,cc,-94.2684,46.0126
MN,ARX,Mower,27099,C,se,-92.7525,43.6714
MN,FSD,Murray,27101,C,sw,-95.7632,44.0221
MN,MPX,Nicollet,27103,C,sc,-94.2474,44.35
MN,FSD,Nobles,27105,C,sw,-95.7534,43.6742
MN,FGF,Norman,27107,C,nw,-96.4551,47.3265
MN,ARX,Olmsted,27109,C,se,-92.4018,44.0036
MN,FGF,Pennington,27113,C,nw,-96.0367,48.0662
MN,DLH,Pine,27115,C,ec,-92.7414,46.1208
MN,FSD,Pipestone,27117,C,sw,-96.2586,44.023
MN,MPX,Pope,27121,C,wc,-95.4445,45.5861
MN,MPX,Ramsey,27123,C,ec,-93.0994,45.0171
MN,FGF,Red Lake,27125,C,nw,-96.0953,47.8717
MN,MPX,Redwood,27127,C,sw,-95.2539,44.4037
MN,MPX,Renville,27129,C,cc,-94.9472,44.7268
MN,MPX,Rice,27131,C,sc,-93.2966,44.3541
MN,FSD,Rock,27133,C,sw,-96.2532,43.6747
MN,FGF,Roseau,27135,C,nw,-95.8107,48.7751
MN,MPX,Scott,27139,C,ec,-93.5358,44.6484
MN,MPX,Sherburne,27141,C,cc,-93.7745,45.4439
MN,MPX,Sibley,27143,C,cc,-94.2321,44.5795
MN,MPX,Stearns,27145,C,cc,-94.613,45.5522
MN,MPX,Steele,27147,C,sc,-93.226,44.0223
MN,MPX,Stevens,27149,C,wc,-96.0003,45.5861
MN,MPX,Swift,27151,C,wc,-95.6813,45.2827
MN,MPX,Todd,27153,C,cc,-94.8976,46.0706
MN,ABR,Traverse,27155,C,wc,-96.4716,45.7721
MN,ARX,Wabasha,27157,C,se,-92.2303,44.2842
MN,FGF,Wadena,27159,C,cc,-94.9693,46.5858
MN,MPX,Waseca,27161,C,sc,-93.5873,44.0221
MN,MPX,Washington,27163,C,ec,-92.8839,45.0383
MN,MPX,Watonwan,27165,C,sc,-94.6141,43.9783
MN,ARX,Winona,27169,C,se,-91.7791,43.9869
MN,MPX,Wright,27171,C,cc,-93.963,45.1739
MN,MPX,Yellow Medicine,27173,C,wc,-95.8683,44.7162
MN,ABR,Big Stone,27011,C,wc,-96.411,45.4261
MN,MPX,Blue Earth,27013,C,sc,-94.0671,44.0346
MN,FGF,Clay,27027,C,nw,-96.4906,46.8924
MN,DLH,Koochiching,27071,C,nc,-93.7834,48.2453
MN,DLH,Lake,27075,C,ne,-91.4452,47.642
MN,DLH,Cook,27031,C,ne,-90.5344,47.9027
MN,DLH,Cass,27021,C,nc,-94.3254,46.9496
MN,DLH,Aitkin,27001,C,ec,-93.4154,46.6083
MN,DLH,Itasca,27061,C,nc,-93.632,47.5095
MN,FGF,Otter Tail,27111,C,wc,-95.7079,46.4088
MN,FGF,Becker,27005,C,nw,-95.6738,46.9346
MN,FGF,Clearwater,27029,C,nw,-95.379,47.5776
MN,FGF,Polk,27119,C,nw,-96.4018,47.7738
MN,FGF,Marshall,27089,C,nw,-96.3685,48.3581
MN,FGF,Wilkin,27167,C,wc,-96.4683,46.3571
MN,DLH,Carlton,27017,C,ne,-92.6771,46.5924
MN,FGF,Beltrami,27007,C,nc,-94.9377,47.9738
MO,SGF,Barton,29011,C,sw,-94.3471,37.5023
MO,EAX,Bates,29013,C,wc,-94.34,38.2573
MO,SGF,Benton,29015,C,cc,-93.2879,38.2948
MO,PAH,Bollinger,29017,C,se,-90.0259,37.3222
MO,LSX,Boone,29019,C,cc,-92.3096,38.9907
MO,EAX,Buchanan,29021,C,nw,-94.8062,39.6598
MO,PAH,Butler,29023,C,se,-90.4065,36.7164
MO,EAX,Caldwell,29025,C,nc,-93.9828,39.6557
MO,LSX,Callaway,29027,C,cc,-91.926,38.8355
MO,SGF,Camden,29029,C,cc,-92.766,38.0271
MO,PAH,Cape Girardeau,29031,C,se,-89.6845,37.3839
MO,EAX,Carroll,29033,C,nc,-93.5052,39.4268
MO,PAH,Carter,29035,C,se,-90.9623,36.9413
MO,EAX,Cass,29037,C,wc,-94.3548,38.647
MO,SGF,Cedar,29039,C,sw,-93.8566,37.7238
MO,EAX,Chariton,29041,C,nc,-92.9626,39.5145
MO,SGF,Christian,29043,C,sw,-93.1889,36.9696
MO,DVN,Clark,29045,C,ne,-91.7384,40.4104
MO,EAX,Clay,29047,C,wc,-94.4208,39.3105
MO,EAX,Clinton,29049,C,nw,-94.4046,39.6018
MO,LSX,Cole,29051,C,cc,-92.2816,38.5055
MO,EAX,Cooper,29053,C,cc,-92.8103,38.8439
MO,LSX,Crawford,29055,C,ec,-91.304,37.9764
MO,EAX,Daviess,29061,C,nc,-93.9855,39.9607
MO,EAX,DeKalb,29063,C,nw,-94.4047,39.8932
MO,SGF,Dent,29065,C,sc,-91.5079,37.6066
MO,SGF,Douglas,29067,C,sw,-92.4988,36.9326
MO,MEG,Dunklin,29069,C,se,-90.0909,36.2718
MO,LSX,Franklin,29071,C,ec,-91.075,38.4112
MO,LSX,Gasconade,29073,C,ec,-91.5079,38.4409
MO,EAX,Gentry,29075,C,nw,-94.4099,40.2121
MO,SGF,Greene,29077,C,sw,-93.342,37.2581
MO,EAX,Grundy,29079,C,nc,-93.5653,40.114
MO,EAX,Harrison,29081,C,nc,-93.9921,40.3547
MO,EAX,Henry,29083,C,wc,-93.7927,38.3852
MO,SGF,Hickory,29085,C,cc,-93.3207,37.9408
MO,EAX,Holt,29087,C,nw,-95.215,40.0946
MO,EAX,Howard,29089,C,cc,-92.6958,39.1428
MO,SGF,Howell,29091,C,sc,-91.8865,36.774
MO,LSX,Iron,29093,C,se,-90.7735,37.5552
MO,EAX,Jackson,29095,C,wc,-94.3461,39.0085
MO,LSX,Jefferson,29099,C,ec,-90.5378,38.261
MO,EAX,Johnson,29101,C,wc,-93.8063,38.7441
MO,LSX,Knox,29103,C,ne,-92.1481,40.1282
MO,SGF,Laclede,29105,C,sw,-92.5903,37.6583
MO,EAX,Lafayette,29107,C,wc,-93.7855,39.0656
MO,SGF,Barry,29009,C,sw,-93.8291,36.7099
MO,LSX,Lewis,29111,C,ne,-91.7222,40.0969
MO,LSX,Lincoln,29113,C,ec,-90.9602,39.0581
MO,EAX,Linn,29115,C,nc,-93.1072,39.8702
MO,EAX,Livingston,29117,C,nc,-93.5483,39.7821
MO,SGF,McDonald,29119,C,sw,-94.3484,36.6287
MO,EAX,Macon,29121,C,nc,-92.5646,39.8308
MO,LSX,Madison,29123,C,se,-90.345,37.4781
MO,SGF,Maries,29125,C,cc,-91.9249,38.1616
MO,LSX,Marion,29127,C,ne,-91.6224,39.806
MO,EAX,Mercer,29129,C,nc,-93.5685,40.4223
MO,SGF,Miller,29131,C,cc,-92.4284,38.2145
MO,PAH,Mississippi,29133,C,se,-89.2911,36.8281
MO,LSX,Moniteau,29135,C,cc,-92.583,38.6327
MO,LSX,Monroe,29137,C,ne,-92.0007,39.4955
MO,LSX,Montgomery,29139,C,ec,-91.4702,38.9415
MO,SGF,Morgan,29141,C,cc,-92.8861,38.4239
MO,PAH,New Madrid,29143,C,se,-89.6516,36.5942
MO,SGF,Newton,29145,C,sw,-94.3392,36.9055
MO,EAX,Nodaway,29147,C,nw,-94.8834,40.3607
MO,SGF,Oregon,29149,C,sc,-91.4033,36.6867
MO,LSX,Osage,29151,C,cc,-91.8618,38.4604
MO,SGF,Ozark,29153,C,sw,-92.4446,36.6493
MO,MEG,Pemiscot,29155,C,se,-89.7858,36.2111
MO,PAH,Perry,29157,C,se,-89.8244,37.7071
MO,EAX,Pettis,29159,C,cc,-93.2851,38.7283
MO,SGF,Phelps,29161,C,ec,-91.7924,37.8771
MO,LSX,Pike,29163,C,ne,-91.1714,39.3438
MO,EAX,Platte,29165,C,wc,-94.7736,39.3804
MO,SGF,Polk,29167,C,sw,-93.4005,37.6165
MO,SGF,Pulaski,29169,C,cc,-92.2076,37.8246
MO,EAX,Putnam,29171,C,nc,-93.0161,40.4789
MO,LSX,Ralls,29173,C,ne,-91.5219,39.5276
MO,EAX,Randolph,29175,C,nc,-92.4971,39.4402
MO,EAX,Ray,29177,C,wc,-93.9899,39.3524
MO,LSX,Reynolds,29179,C,se,-90.9691,37.3623
MO,PAH,Ripley,29181,C,se,-90.8639,36.6528
MO,LSX,St. Charles,29183,C,ec,-90.6752,38.7819
MO,SGF,St. Clair,29185,C,wc,-93.776,38.0371
MO,LSX,Ste. Genevieve,29186,C,se,-90.1952,37.894
MO,LSX,St. Francois,29187,C,se,-90.4729,37.8104
MO,LSX,St. Louis,29189,C,ec,-90.443,38.6407
MO,EAX,Saline,29195,C,cc,-93.2022,39.1366
MO,EAX,Schuyler,29197,C,ne,-92.5209,40.4703
MO,DVN,Scotland,29199,C,ne,-92.1471,40.4526
MO,PAH,Scott,29201,C,se,-89.5686,37.053
MO,SGF,Shannon,29203,C,sc,-91.4005,37.1574
MO,LSX,Shelby,29205,C,ne,-92.0766,39.7978
MO,PAH,Stoddard,29207,C,se,-89.9444,36.8555
MO,SGF,Stone,29209,C,sw,-93.4559,36.7469
MO,EAX,Sullivan,29211,C,nc,-93.1115,40.2107
MO,SGF,Taney,29213,C,sw,-93.041,36.6547
MO,SGF,Texas,29215,C,sc,-91.9651,37.3173
MO,SGF,Vernon,29217,C,wc,-94.3424,37.8506
MO,LSX,Warren,29219,C,ec,-91.1607,38.7646
MO,LSX,Washington,29221,C,ec,-90.8774,37.9617
MO,PAH,Wayne,29223,C,se,-90.4614,37.1127
MO,SGF,Webster,29225,C,sw,-92.8759,37.2809
MO,EAX,Worth,29227,C,nw,-94.4222,40.4791
MO,SGF,Wright,29229,C,sw,-92.4687,37.2701
MO,LSX,St. Louis City,29510,C,ec,-90.245,38.6358
MO,SGF,Dade,29057,C,sw,-93.8502,37.432
MO,SGF,Dallas,29059,C,sw,-93.0236,37.6804
MO,EAX,Adair,29001,C,ne,-92.6007,40.1906
MO,EAX,Andrew,29003,C,nw,-94.8021,39.9834
MO,EAX,Atchison,29005,C,nw,-95.427,40.4307
MO,LSX,Audrain,29007,C,cc,-91.8416,39.2158
MO,SGF,Lawrence,29109,C,sw,-93.8329,37.1063
MO,SGF,Jasper,29097,C,sw,-94.3406,37.2035
MS,LIX,Amite,28005,C,ss,-90.8045,31.1744
MS,JAN,Attala,28007,C,cc,-89.5817,33.0863
MS,MEG,Benton,28009,C,ne,-89.1885,34.8173
MS,JAN,Adams,28001,C,sw,-91.3531,31.4832
MS,MEG,Yalobusha,28161,C,nw,-89.7076,34.0282
MS,JAN,Winston,28159,C,ec,-89.0344,33.0885
MS,LIX,Wilkinson,28157,C,ss,-91.3109,31.161
MS,JAN,Webster,28155,C,nc,-89.2848,33.6131
MS,MOB,Wayne,28153,C,se,-88.6958,31.6408
MS,JAN,Washington,28151,C,nw,-90.9474,33.2836
MS,JAN,Warren,28149,C,wc,-90.8521,32.3573
MS,LIX,Walthall,28147,C,ss,-90.1061,31.1485
MS,MEG,Union,28145,C,ne,-89.0038,34.4905
MS,MEG,Tunica,28143,C,nw,-90.3755,34.652
MS,MEG,Tishomingo,28141,C,ne,-88.2393,34.7404
MS,MEG,Tippah,28139,C,ne,-88.9089,34.7684
MS,MEG,Tate,28137,C,nw,-89.9448,34.6503
MS,MEG,Tallahatchie,28135,C,nw,-90.1732,33.9505
MS,JAN,Sunflower,28133,C,nw,-90.5886,33.6023
MS,MOB,Stone,28131,C,se,-89.1177,30.79
MS,JAN,Smith,28129,C,cc,-89.5067,32.0177
MS,JAN,Simpson,28127,C,cc,-89.9195,31.9132
MS,JAN,Sharkey,28125,C,wc,-90.8132,32.8797
MS,JAN,Scott,28123,C,cc,-89.5376,32.4064
MS,JAN,Rankin,28121,C,cc,-89.9457,32.2641
MS,MEG,Quitman,28119,C,nw,-90.2891,34.2514
MS,MEG,Prentiss,28117,C,ne,-88.5201,34.6183
MS,MEG,Pontotoc,28115,C,ne,-89.0374,34.2254
MS,MOB,Perry,28111,C,se,-88.9923,31.172
MS,MEG,Panola,28107,C,nw,-89.9505,34.3639
MS,JAN,Oktibbeha,28105,C,ne,-88.8793,33.425
MS,JAN,Noxubee,28103,C,ec,-88.5698,33.1101
MS,JAN,Newton,28101,C,ec,-89.1188,32.4002
MS,JAN,Neshoba,28099,C,ec,-89.1176,32.7535
MS,JAN,Montgomery,28097,C,nc,-89.6164,33.4941
MS,MEG,Monroe,28095,C,ne,-88.4804,33.8923
MS,MEG,Marshall,28093,C,nw,-89.5031,34.7623
MS,JAN,Marion,28091,C,sc,-89.8224,31.2308
MS,MEG,Coahoma,28027,C,nw,-90.6027,34.2292
MS,JAN,Clay,28025,C,ne,-88.7815,33.6557
MS,JAN,Clarke,28023,C,ec,-88.6894,32.0414
MS,JAN,Claiborne,28021,C,sw,-90.9118,31.9737
MS,JAN,Choctaw,28019,C,cc,-89.2484,33.3473
MS,MEG,Chickasaw,28017,C,ne,-88.9479,33.9208
MS,JAN,Carroll,28015,C,nc,-89.9202,33.4485
MS,MEG,Calhoun,28013,C,ne,-89.3364,33.9364
MS,JAN,Bolivar,28011,C,nw,-90.8804,33.7955
MS,LIX,Pearl River,28109,C,ss,-89.5898,30.7686
MS,MEG,Alcorn,28003,C,ne,-88.5803,34.8808
MS,JAN,Yazoo,28163,C,cc,-90.3965,32.7804
MS,JAN,Madison,28089,C,cc,-90.0338,32.6347
MS,JAN,Lowndes,28087,C,ne,-88.4433,33.4729
MS,JAN,Lincoln,28085,C,sc,-90.454,31.5324
MS,JAN,Leflore,28083,C,nc,-90.301,33.5505
MS,MEG,Lee,28081,C,ne,-88.6804,34.2899
MS,JAN,Leake,28079,C,cc,-89.5241,32.7535
MS,JAN,Lawrence,28077,C,sc,-90.107,31.5502
MS,JAN,Lauderdale,28075,C,ec,-88.6626,32.4043
MS,JAN,Lamar,28073,C,se,-89.5087,31.2059
MS,MEG,Lafayette,28071,C,nw,-89.4849,34.3568
MS,JAN,Kemper,28069,C,ec,-88.6412,32.7546
MS,JAN,Jones,28067,C,se,-89.1688,31.6226
MS,JAN,Jefferson Davis,28065,C,sc,-89.823,31.5696
MS,JAN,Jefferson,28063,C,sw,-91.0371,31.7342
MS,MEG,Itawamba,28057,C,ne,-88.3613,34.28
MS,JAN,Issaquena,28055,C,wc,-90.9892,32.7414
MS,JAN,Humphreys,28053,C,cc,-90.5265,33.1287
MS,JAN,Holmes,28051,C,cc,-90.0922,33.1235
MS,JAN,Hinds,28049,C,cc,-90.4427,32.2667
MS,JAN,Grenada,28043,C,nc,-89.802,33.77
MS,MOB,Greene,28041,C,se,-88.6392,31.2142
MS,MOB,George,28039,C,se,-88.644,30.8626
MS,JAN,Franklin,28037,C,sw,-90.8978,31.4772
MS,MEG,DeSoto,28033,C,nw,-89.9918,34.8754
MS,JAN,Covington,28031,C,se,-89.5526,31.6332
MS,JAN,Copiah,28029,C,cc,-90.4488,31.8692
MS,LIX,Hancock,28045,C,ss,-89.4887,30.4164
MS,LIX,Jackson,28059,C,ss,-88.6362,30.5459
MS,LIX,Harrison,28047,C,ss,-89.1185,30.515
MS,LIX,Pike,28113,C,ss,-90.4042,31.1749
MS,JAN,Jasper,28061,C,ec,-89.1189,32.0191
MS,JAN,Forrest,28035,C,se,-89.2579,31.1889
MT,TFX,Beaverhead,30001,M,sw,-112.8988,45.1328
MT,TFX,Blaine,30005,M,nc,-108.9586,48.4327
MT,TFX,Broadwater,30007,M,sw,-111.4955,46.3319
MT,BYZ,Carter,30011,M,se,-104.5362,45.5168
MT,TFX,Cascade,30013,M,cc,-111.3472,47.308
MT,TFX,Chouteau,30015,M,nc,-110.4352,47.8806
MT,BYZ,Custer,30017,M,se,-105.5718,46.2527
MT,GGW,Daniels,30019,M,ne,-105.5485,48.7838
MT,GGW,Dawson,30021,M,ne,-104.8994,47.2664
MT,MSO,Deer Lodge,30023,M,wc,-113.0677,46.0608
MT,BYZ,Fallon,30025,M,se,-104.4174,46.334
MT,TFX,Fergus,30027,M,cc,-109.2243,47.2636
MT,GGW,Garfield,30033,M,ne,-106.9928,47.2777
MT,TFX,Hill,30041,M,nc,-110.1113,48.6282
MT,TFX,Jefferson,30043,M,sw,-112.0937,46.1485
MT,TFX,Judith Basin,30045,M,cc,-110.2661,47.0455
MT,TFX,Liberty,30051,M,nc,-111.0246,48.5617
MT,GGW,McCone,30055,M,ne,-105.7953,47.6452
MT,TFX,Madison,30057,M,sw,-111.9203,45.3008
MT,TFX,Meagher,30059,M,cc,-110.8856,46.5982
MT,MSO,Mineral,30061,M,wc,-114.9985,47.1474
MT,BYZ,Musselshell,30065,M,cc,-108.3977,46.4966
MT,GGW,Petroleum,30069,M,ne,-108.2501,47.1175
MT,BYZ,Powder River,30075,M,se,-105.6301,45.395
MT,GGW,Prairie,30079,M,ne,-105.378,46.8605
MT,GGW,Richland,30083,M,ne,-104.5613,47.7879
MT,GGW,Sheridan,30091,M,ne,-104.5046,48.7212
MT,MSO,Silver Bow,30093,M,wc,-112.6567,45.9024
MT,TFX,Toole,30101,M,nc,-111.6957,48.6552
MT,BYZ,Treasure,30103,M,se,-107.2717,46.2115
MT,GGW,Wibaux,30109,M,ne,-104.249,46.9653
MT,BYZ,Yellowstone,30111,M,sc,-108.2744,45.9372
MT,MSO,Lincoln,30053,M,nw,-115.4051,48.5425
MT,BYZ,Sweet Grass,30097,M,sc,-109.941,45.8137
MT,BYZ,Stillwater,30095,M,sc,-109.3948,45.6694
MT,MSO,Powell,30077,M,wc,-112.9362,46.8566
MT,TFX,Teton,30099,M,nc,-112.2408,47.8373
MT,BYZ,Park,30067,M,sc,-110.5263,45.4884
MT,TFX,Gallatin,30031,M,sc,-111.1703,45.5403
MT,MSO,Missoula,30063,M,wc,-113.9237,47.0364
MT,MSO,Granite,30039,M,wc,-113.4403,46.4045
MT,BYZ,Golden Valley,30037,M,cc,-109.1749,46.3812
MT,BYZ,Wheatland,30107,M,cc,-109.8444,46.4664
MT,BYZ,Carbon,30009,M,sc,-109.0283,45.2273
MT,MSO,Lake,30047,M,nw,-114.0892,47.6459
MT,MSO,Sanders,30089,M,nw,-115.1333,47.6749
MT,MSO,Flathead,30029,M,nw,-114.0496,48.2951
MT,TFX,Glacier,30035,M,nc,-112.995,48.7058
MT,TFX,Pondera,30073,M,nc,-112.2288,48.2283
MT,TFX,Lewis and Clark,30049,M,wc,-112.3903,47.1223
MT,MSO,Ravalli,30081,M,wc,-114.1207,46.0817
MT,GGW,Phillips,30071,M,ne,-107.9133,48.2591
MT,BYZ,Big Horn,30003,M,sc,-107.4897,45.4235
MT,BYZ,Rosebud,30087,M,se,-106.7308,46.2297
MT,GGW,Roosevelt,30085,M,ne,-105.0165,48.2946
MT,GGW,Valley,30105,M,ne,-106.6675,48.3653
NC,RAH,Hoke,37093,E,cc,-79.2371,35.0174
NC,RAH,Alamance,37001,E,cc,-79.3995,36.044
NC,GSP,Alexander,37003,E,pd,-81.1772,35.9211
NC,RNK,Alleghany,37005,E,nw,-81.1286,36.4915
NC,RAH,Anson,37007,E,cc,-80.1027,34.9738
NC,RNK,Ashe,37009,E,nw,-81.501,36.4346
NC,GSP,Avery,37011,E,ww,-81.9224,36.0766
NC,GSP,Buncombe,37021,E,ww,-82.5302,35.6112
NC,GSP,Cabarrus,37025,E,pd,-80.5519,35.3868
NC,RNK,Caswell,37033,E,nc,-79.3337,36.3934
NC,GSP,Catawba,37035,E,pd,-81.2144,35.6626
NC,RAH,Chatham,37037,E,cc,-79.2553,35.7027
NC,MRX,Cherokee,37039,E,sw,-84.0635,35.1339
NC,MRX,Clay,37043,E,sw,-83.7502,35.0572
NC,GSP,Cleveland,37045,E,pd,-81.5554,35.334
NC,RAH,Cumberland,37051,E,cc,-78.8273,35.0485
NC,RAH,Davidson,37057,E,cc,-80.2127,35.7932
NC,GSP,Davie,37059,E,pd,-80.5446,35.9292
NC,RAH,Durham,37063,E,cc,-78.8764,36.0359
NC,RAH,Edgecombe,37065,E,cc,-77.5971,35.9129
NC,RAH,Forsyth,37067,E,cc,-80.2563,36.1304
NC,RAH,Franklin,37069,E,cc,-78.2857,36.0827
NC,GSP,Gaston,37071,E,pd,-81.1801,35.2945
NC,GSP,Graham,37075,E,ww,-83.8335,35.3502
NC,RAH,Granville,37077,E,cc,-78.653,36.304
NC,MHX,Greene,37079,E,ee,-77.6756,35.4852
NC,RAH,Guilford,37081,E,cc,-79.789,36.0794
NC,RAH,Halifax,37083,E,cc,-77.6519,36.2575
NC,GSP,Haywood,37087,E,ww,-82.9822,35.5561
NC,GSP,Henderson,37089,E,ww,-82.4799,35.3362
NC,GSP,Iredell,37097,E,pd,-80.8736,35.8072
NC,RAH,Lee,37105,E,cc,-79.1716,35.475
NC,GSP,Lincoln,37109,E,pd,-81.2239,35.4862
NC,GSP,Macon,37113,E,ww,-83.4221,35.1504
NC,GSP,Madison,37115,E,ww,-82.7057,35.8581
NC,GSP,Mecklenburg,37119,E,pd,-80.8328,35.2468
NC,GSP,Mitchell,37121,E,ww,-82.1634,36.0133
NC,RAH,Montgomery,37123,E,cc,-79.9054,35.3324
NC,RAH,Moore,37125,E,cc,-79.4813,35.3107
NC,RNK,Yadkin,37197,E,nw,-80.6653,36.1605
NC,RAH,Orange,37135,E,cc,-79.1205,36.0614
NC,RAH,Person,37145,E,cc,-78.9717,36.3901
NC,MHX,Pitt,37147,E,ee,-77.3748,35.5935
NC,RAH,Randolph,37151,E,cc,-79.806,35.7103
NC,RAH,Richmond,37153,E,cc,-79.748,35.0059
NC,ILM,Robeson,37155,E,se,-79.1035,34.6401
NC,RNK,Rockingham,37157,E,nc,-79.7751,36.3961
NC,RAH,Scotland,37165,E,cc,-79.4805,34.8411
NC,RAH,Stanly,37167,E,cc,-80.2507,35.312
NC,RNK,Stokes,37169,E,nc,-80.2395,36.4018
NC,RNK,Surry,37171,E,nw,-80.6882,36.4148
NC,GSP,Swain,37173,E,ww,-83.4927,35.4867
NC,GSP,Transylvania,37175,E,ww,-82.7983,35.2022
NC,GSP,Union,37179,E,pd,-80.5307,34.9884
NC,RAH,Vance,37181,E,cc,-78.4083,36.3648
NC,RAH,Wake,37183,E,cc,-78.6504,35.7901
NC,RAH,Warren,37185,E,cc,-78.1069,36.3966
NC,RNK,Watauga,37189,E,nw,-81.6969,36.2313
NC,RNK,Wilkes,37193,E,nw,-81.1638,36.2065
NC,RAH,Wilson,37195,E,cc,-77.9185,35.7048
NC,GSP,Yancey,37199,E,ww,-82.3076,35.8989
NC,RAH,Nash,37127,E,cc,-77.9864,35.9672
NC,GSP,Rowan,37159,E,pd,-80.5247,35.6396
NC,RAH,Johnston,37101,E,cc,-78.3657,35.5176
NC,MHX,Lenoir,37107,E,ee,-77.6416,35.2393
NC,RAH,Wayne,37191,E,cc,-78.004,35.3638
NC,RAH,Harnett,37085,E,cc,-78.8693,35.3687
NC,RAH,Sampson,37163,E,cc,-78.3712,34.9915
NC,ILM,Columbus,37047,E,se,-78.655,34.2655
NC,MHX,Dare,37055,E,ee,-75.8009,35.7715
NC,MHX,Pamlico,37137,E,ee,-76.7488,35.1407
NC,ILM,Bladen,37017,E,se,-78.5632,34.6143
NC,MHX,Jones,37103,E,ee,-77.3555,35.0222
NC,MHX,Duplin,37061,E,ee,-77.9333,34.9365
NC,GSP,McDowell,37111,E,ww,-82.0487,35.6813
NC,GSP,Polk,37149,E,ww,-82.1696,35.2793
NC,GSP,Rutherford,37161,E,ww,-81.9202,35.4023
NC,GSP,Jackson,37099,E,ww,-83.1408,35.2874
NC,GSP,Caldwell,37027,E,ww,-81.5465,35.953
NC,GSP,Burke,37023,E,ww,-81.7045,35.7495
NC,MHX,Craven,37049,E,ee,-77.0969,35.1262
NC,MHX,Beaufort,37013,E,ee,-76.8631,35.4947
NC,MHX,Martin,37117,E,ee,-77.1072,35.8416
,,,,,,,
NJ,OKX,Essex,34013,E,ne,-74.1293,40.69
,,,,,,,
NJ,OKX,Hudson,34017,E,ne,-74.0825,40.7068
NC,MHX,Carteret,37031,E,ee,-76.6707,34.8306
NC,MHX,Onslow,37133,E,ee,-77.4342,34.7374
,,,,,,,
NJ,OKX,Union,34039,E,ne,-74.1597,40.6572
NC,MHX,Hyde,37095,E,ee,-76.2485,35.5318
NC,MHX,Washington,37187,E,ee,-76.5767,35.8221
NC,MHX,Tyrrell,37177,E,ee,-76.2118,35.8161
,,,,,,,
NC,AKQ,Gates,37073,E,ne,-76.7011,36.4449
NC,AKQ,Northampton,37131,E,ne,-77.3967,36.4177
NY,OKX,Bronx,36005,E,se,-73.8669,40.8527
,,,,,,,
NY,OKX,New York,36061,E,se,-73.9689,40.7786
,,,,,,,
NY,OKX,Queens,36081,E,se,-73.8177,40.7067
,,,,,,,
NY,OKX,Richmond,36085,E,se,-74.1557,40.5802
,,,,,,,
NY,OKX,Westchester,36119,E,se,-73.8998,40.9601
,,,,,,,
NC,AKQ,Bertie,37015,E,ne,-76.7246,36.1197
,,,,,,,
NC,ILM,Brunswick,37019,E,se,-78.0599,33.9633
ND,BIS,Divide,38023,C,nw,-103.4873,48.8149
ND,FGF,Eddy,38027,C,ne,-98.9016,47.7176
ND,BIS,Emmons,38029,C,sc,-100.2388,46.2851
ND,BIS,Foster,38031,C,se,-98.8831,47.4571
ND,BIS,Golden Valley,38033,M,sw,-103.8467,46.9402
ND,FGF,Grand Forks,38035,C,ne,-97.457,47.9219
ND,BIS,Grant,38037,M,sc,-101.6397,46.3583
ND,FGF,Griggs,38039,C,se,-98.2371,47.4572
ND,BIS,Hettinger,38041,M,sw,-102.4603,46.4326
ND,BIS,Kidder,38043,C,sc,-99.7801,46.9802
ND,BIS,LaMoure,38045,C,se,-98.5355,46.4569
ND,BIS,Logan,38047,C,se,-99.4775,46.4574
ND,BIS,McHenry,38049,C,nc,-100.6363,48.2346
ND,BIS,McIntosh,38051,C,se,-99.4412,46.1119
ND,BIS,McLean,38055,C,sc,-101.3219,47.607
ND,BIS,Mercer,38057,C,sc,-101.8315,47.3092
ND,BIS,Mountrail,38061,C,nw,-102.3556,48.2013
ND,FGF,Nelson,38063,C,ne,-98.1921,47.9216
ND,BIS,Oliver,38065,C,sc,-101.3403,47.1153
ND,FGF,Pembina,38067,C,ne,-97.5517,48.7672
ND,BIS,Pierce,38069,C,nc,-99.9718,48.2496
ND,FGF,Ramsey,38071,C,ne,-98.7201,48.2689
ND,FGF,Ransom,38073,C,se,-97.6575,46.4561
ND,BIS,Renville,38075,C,nc,-101.6581,48.7192
ND,BIS,Rolette,38079,C,nc,-99.8411,48.7724
ND,FGF,Sargent,38081,C,se,-97.6306,46.1078
ND,BIS,Sheridan,38083,C,sc,-100.3456,47.5754
ND,BIS,Slope,38087,M,sw,-103.4599,46.4472
ND,BIS,Stark,38089,M,sw,-102.655,46.8107
ND,FGF,Steele,38091,C,se,-97.7247,47.4562
ND,BIS,Stutsman,38093,C,se,-98.9588,46.9792
ND,FGF,Towner,38095,C,ne,-99.2459,48.6856
ND,FGF,Traill,38097,C,se,-97.1615,47.4542
ND,BIS,Williams,38105,C,nw,-103.4802,48.3437
ND,BIS,Adams,38001,M,sw,-102.5285,46.0969
ND,FGF,Barnes,38003,C,se,-98.0716,46.9361
ND,FGF,Benson,38005,C,ne,-99.366,48.0694
ND,BIS,Billings,38007,M,sw,-103.3764,47.0234
ND,BIS,Bottineau,38009,C,nc,-100.8335,48.7921
ND,BIS,Bowman,38011,M,sw,-103.5207,46.1126
ND,BIS,Burke,38013,C,nw,-102.5182,48.7909
ND,BIS,Burleigh,38015,C,sc,-100.4688,46.9774
ND,FGF,Cass,38017,C,se,-97.2481,46.933
ND,FGF,Cavalier,38019,C,ne,-98.465,48.7721
ND,BIS,Dickey,38021,C,se,-98.5045,46.1102
ND,BIS,Ward,38101,C,nc,-101.5419,48.2218
ND,BIS,Wells,38103,C,sc,-99.661,47.5876
ND,BIS,Morton,38059,C,sc,-101.2811,46.7161
ND,BIS,McKenzie,38053,CM,nw,-103.3953,47.7402
ND,BIS,Dunn,38025,CM,sw,-102.6183,47.3568
ND,BIS,Sioux,38085,CM,sc,-101.0404,46.1127
ND,FGF,Richland,38077,C,se,-96.9483,46.2646
ND,FGF,Walsh,38099,C,ne,-97.7214,48.3694
NE,LBF,Deuel,31049,M,pa,-102.3339,41.1116
NE,FSD,Dixon,31051,C,ne,-96.8678,42.4932
NE,OAX,Dodge,31053,C,ec,-96.6542,41.5777
NE,OAX,Douglas,31055,C,ec,-96.1544,41.2953
NE,GLD,Dundy,31057,M,sw,-101.6879,40.1762
NE,GID,Fillmore,31059,C,sc,-97.5964,40.5247
NE,GID,Franklin,31061,C,sc,-98.9527,40.1764
NE,LBF,Frontier,31063,C,sw,-100.3942,40.5301
NE,GID,Furnas,31065,C,sc,-99.9123,40.1765
NE,OAX,Gage,31067,C,se,-96.6893,40.2619
NE,LBF,Garden,31069,M,pa,-102.3354,41.6194
NE,LBF,Garfield,31071,C,nc,-98.9914,41.9143
NE,GID,Gosper,31073,C,sc,-99.8307,40.5148
NE,LBF,Grant,31075,M,wc,-101.7405,41.915
NE,GID,Greeley,31077,C,cc,-98.5212,41.5675
NE,GID,Hall,31079,C,sc,-98.5022,40.8725
NE,GID,Hamilton,31081,C,sc,-98.0233,40.8735
NE,GID,Harlan,31083,C,sc,-99.4046,40.1765
NE,LBF,Hayes,31085,C,sw,-101.0618,40.5248
NE,GLD,Hitchcock,31087,C,sw,-101.0422,40.1763
NE,LBF,Holt,31089,C,nc,-98.7838,42.4557
NE,LBF,Hooker,31091,M,wc,-101.1353,41.9159
NE,GID,Howard,31093,C,cc,-98.5171,41.22
NE,OAX,Jefferson,31095,C,se,-97.1426,40.1757
NE,OAX,Johnson,31097,C,se,-96.2649,40.3926
NE,GID,Kearney,31099,C,sc,-98.948,40.5067
NE,LBF,Keith,31101,M,sw,-101.6613,41.1988
NE,LBF,Keya Paha,31103,C,nc,-99.7124,42.8789
NE,CYS,Kimball,31105,M,pa,-103.715,41.1977
NE,OAX,Knox,31107,C,ne,-97.8919,42.6369
NE,CYS,Banner,31007,M,pa,-103.7104,41.546
NE,LBF,Blaine,31009,C,nc,-99.9769,41.9128
NE,OAX,Boone,31011,C,ne,-98.0673,41.7068
NE,CYS,Box Butte,31013,M,pa,-103.0857,42.2198
NE,LBF,Boyd,31015,C,nc,-98.7665,42.8997
NE,LBF,Brown,31017,C,nc,-99.9295,42.43
NE,GID,Buffalo,31019,C,sc,-99.075,40.8551
NE,OAX,Burt,31021,C,ec,-96.3287,41.8515
NE,OAX,Butler,31023,C,ec,-97.1306,41.2242
NE,OAX,Cass,31025,C,se,-96.1408,40.9098
NE,OAX,Cedar,31027,C,ne,-97.2523,42.5993
NE,LBF,Chase,31029,M,sw,-101.6979,40.5242
NE,CYS,Cheyenne,31033,M,pa,-102.995,41.2198
NE,GID,Clay,31035,C,sc,-98.0512,40.5244
NE,OAX,Colfax,31037,C,ne,-97.0867,41.5731
NE,OAX,Cuming,31039,C,ne,-96.7874,41.9164
NE,LBF,Custer,31041,C,cc,-99.7262,41.3943
NE,FSD,Dakota,31043,C,ne,-96.5646,42.3911
NE,CYS,Dawes,31045,M,pa,-103.1355,42.7197
NE,GID,Dawson,31047,C,sc,-99.8195,40.8699
NE,OAX,Lancaster,31109,C,se,-96.6878,40.7841
NE,LBF,Lincoln,31111,C,sw,-100.7452,41.0478
NE,LBF,Logan,31113,C,wc,-100.4829,41.5665
NE,LBF,Loup,31115,C,nc,-99.4544,41.9138
NE,LBF,McPherson,31117,C,wc,-101.0605,41.5681
NE,OAX,Madison,31119,C,ne,-97.6008,41.9167
NE,GID,Merrick,31121,C,cc,-98.0376,41.1698
NE,CYS,Morrill,31123,M,pa,-103.0105,41.716
NE,GID,Nance,31125,C,cc,-97.9923,41.3973
NE,OAX,Nemaha,31127,C,se,-95.8486,40.3881
NE,GID,Nuckolls,31129,C,sc,-98.0472,40.1764
NE,OAX,Otoe,31131,C,se,-96.1348,40.6485
NE,OAX,Pawnee,31133,C,se,-96.237,40.1314
NE,LBF,Perkins,31135,M,sw,-101.6496,40.8509
NE,GID,Phelps,31137,C,sc,-99.4145,40.5111
NE,OAX,Pierce,31139,C,ne,-97.6013,42.2644
NE,OAX,Platte,31141,C,ne,-97.5198,41.5701
NE,GID,Polk,31143,C,ec,-97.5684,41.1869
NE,GLD,Red Willow,31145,C,sw,-100.4768,40.1758
NE,OAX,Richardson,31147,C,se,-95.7167,40.1249
NE,LBF,Rock,31149,C,nc,-99.45,42.4213
NE,OAX,Saline,31151,C,se,-97.1408,40.524
NE,OAX,Sarpy,31153,C,ec,-96.1119,41.1131
NE,OAX,Saunders,31155,C,ec,-96.6373,41.2261
NE,CYS,Scotts Bluff,31157,M,pa,-103.708,41.8506
NE,OAX,Seward,31159,C,se,-97.1395,40.8723
NE,LBF,Sheridan,31161,M,pa,-102.409,42.5048
NE,GID,Sherman,31163,C,cc,-98.9763,41.2205
NE,GID,York,31185,C,ec,-97.5971,40.8727
NE,GID,Thayer,31169,C,sc,-97.5947,40.1763
NE,LBF,Thomas,31171,C,nc,-100.5559,41.9135
NE,OAX,Thurston,31173,C,ne,-96.5441,42.1582
NE,GID,Valley,31175,C,cc,-98.9819,41.5673
NE,OAX,Washington,31177,C,ec,-96.2218,41.5311
NE,OAX,Wayne,31179,C,ne,-97.1193,42.2092
NE,GID,Webster,31181,C,sc,-98.4999,40.1764
NE,LBF,Wheeler,31183,C,nc,-98.5282,41.9148
NE,GID,Adams,31001,C,sc,-98.5012,40.5245
NE,OAX,Stanton,31167,C,ne,-97.1939,41.9169
NE,LBF,Arthur,31005,M,wc,-101.6959,41.5689
NE,OAX,Antelope,31003,C,ne,-98.0667,42.177
NE,CYS,Sioux,31165,M,pa,-103.7589,42.4877
NE,LBF,Cherry,31031,MC,nc,-101.1186,42.5449
NH,GYX,Sullivan,33019,E,cc,-72.2223,43.3612
NH,GYX,Belknap,33001,E,cc,-71.4233,43.5188
NH,GYX,Cheshire,33005,E,ss,-72.2512,42.9193
NH,GYX,Strafford,33017,E,cc,-71.0293,43.2975
NH,GYX,Merrimack,33013,E,cc,-71.6802,43.2977
NH,GYX,Carroll,33003,E,nn,-71.2028,43.8739
NH,GYX,Hillsborough,33011,E,ss,-71.716,42.9153
NH,GYX,Rockingham,33015,E,ss,-71.1251,42.9877
NH,GYX,Coos,33007,E,nn,-71.3057,44.6893
NH,GYX,Grafton,33009,E,nn,-71.8205,43.9409
,,,,,,,
NC,AKQ,Camden,37029,E,ne,-76.2101,36.3902
,,,,,,,
,,,,,,,
NC,AKQ,Chowan,37041,E,ne,-76.6914,36.1513
NJ,OKX,Passaic,34031,E,ne,-74.3003,41.0337
,,,,,,,
NC,AKQ,Currituck,37053,E,ne,-75.9184,36.2197
,,,,,,,
NJ,PHI,Cape May,34009,E,ss,-74.8072,39.1519
NJ,PHI,Monmouth,34025,E,cc,-74.2257,40.259
NJ,PHI,Atlantic,34001,E,ss,-74.6766,39.4825
NJ,PHI,Ocean,34029,E,ss,-74.2988,39.9092
NJ,PHI,Salem,34033,E,ss,-75.3459,39.5873
NJ,PHI,Cumberland,34011,E,ss,-75.1099,39.3736
NJ,PHI,Warren,34041,E,nw,-74.997,40.8574
NJ,PHI,Camden,34007,E,ss,-74.9599,39.8038
NJ,PHI,Hunterdon,34019,E,nw,-74.9123,40.5672
NJ,PHI,Mercer,34021,E,cc,-74.7014,40.2833
NJ,PHI,Morris,34027,E,nn,-74.5445,40.8621
NJ,PHI,Somerset,34035,E,nn,-74.6164,40.5637
NJ,PHI,Sussex,34037,E,nw,-74.6902,41.1395
NJ,PHI,Gloucester,34015,E,ss,-75.1419,39.7173
NJ,PHI,Middlesex,34023,E,nn,-74.4113,40.4394
NJ,PHI,Burlington,34005,E,ss,-74.6679,39.8774
NM,ABQ,Los Alamos,35028,M,nc,-106.3072,35.8693
NM,ABQ,Sandoval,35043,M,nc,-106.8659,35.6887
NM,ABQ,Santa Fe,35049,M,nc,-105.9761,35.5068
NM,ABQ,Rio Arriba,35039,M,nc,-106.6931,36.5096
NM,ABQ,Socorro,35053,M,cc,-106.9303,34.0072
NM,ABQ,Torrance,35057,M,cc,-105.8508,34.6405
NM,ABQ,Valencia,35061,M,cc,-106.8091,34.7154
NM,ABQ,Bernalillo,35001,M,cc,-106.6702,35.0515
NM,ABQ,Cibola,35006,M,wc,-107.9997,34.9126
NM,ABQ,Union,35059,M,ne,-103.471,36.4818
NM,ABQ,San Juan,35045,M,nw,-108.3206,36.5085
NM,ABQ,Lincoln,35027,M,cc,-105.4592,33.7453
NM,ABQ,Catron,35003,M,wc,-108.4047,33.9153
NM,EPZ,Sierra,35051,M,sc,-107.1925,33.1305
NM,ABQ,McKinley,35031,M,wc,-108.2619,35.5806
NM,ABQ,Taos,35055,M,nc,-105.6309,36.5783
NM,ABQ,Curry,35009,M,ec,-103.3468,34.5741
NM,ABQ,De Baca,35011,M,ec,-104.412,34.3424
NM,ABQ,Guadalupe,35019,M,ec,-104.7907,34.8633
NM,ABQ,Harding,35021,M,ne,-103.8199,35.858
NM,EPZ,Luna,35029,M,sw,-107.7497,32.1822
NM,ABQ,Quay,35037,M,ec,-103.5497,35.1043
NM,ABQ,Roosevelt,35041,M,ec,-103.4802,34.0213
NM,ABQ,Chaves,35005,M,se,-104.467,33.3632
NM,MAF,Lea,35025,M,se,-103.4124,32.7922
NM,ABQ,San Miguel,35047,M,ne,-104.8159,35.4803
NM,ABQ,Colfax,35007,M,ne,-104.6468,36.6061
NM,ABQ,Mora,35033,M,ne,-104.9446,36.0099
NM,EPZ,Otero,35035,M,sc,-105.7417,32.6132
NM,EPZ,Grant,35017,M,sw,-108.3822,32.739
NM,EPZ,Hidalgo,35023,M,sw,-108.7148,31.9142
NM,EPZ,Dona Ana,35013,M,sc,-106.8328,32.3527
NM,MAF,Eddy,35015,M,se,-104.3043,32.4715
NV,REV,Churchill,32001,P,wc,-118.3356,39.5809
NV,VEFLKN,Esmeralda,32009,P,sc,-117.6324,37.7847
NV,LKN,Humboldt,32013,P,nw,-118.112,41.4068
NV,REV,Mineral,32021,P,ww,-118.4352,38.5388
NV,REV,Storey,32029,P,ww,-119.5291,39.4466
NV,REV,Pershing,32027,P,wc,-118.4044,40.4404
NV,LKN,Elko,32007,P,ne,-115.3578,41.1458
NV,LKN,White Pine,32033,P,ne,-114.9016,39.4422
NV,VEF,Clark,32003,P,ss,-115.0187,36.2145
NV,REV,Douglas,32005,P,ww,-119.6164,38.9123
NV,REV,Washoe,32031,P,ww,-119.6637,40.6639
NV,REV,Lyon,32019,P,wc,-119.189,39.018
NV,REV,Carson City,32510,P,ww,-119.7465,39.1507
NV,VEFLKN,Nye,32023,P,sc,-116.4732,38.0466
NV,VEF,Lincoln,32017,P,sc,-114.8775,37.6433
NV,LKN,Eureka,32011,P,nc,-116.2686,39.9839
NV,LKN,Lander,32015,P,nc,-117.0379,39.9338
NY,BGM,Yates,36123,E,cc,-77.1055,42.6335
NY,BUF,Allegany,36003,E,ww,-78.0276,42.2574
NY,BGM,Broome,36007,E,cc,-75.8196,42.1602
NY,BUF,Cattaraugus,36009,E,ww,-78.6789,42.2486
NY,BGM,Chemung,36015,E,cc,-76.76,42.1413
NY,BGM,Chenango,36017,E,cc,-75.6115,42.4936
NY,BGM,Cortland,36023,E,cc,-76.0702,42.595
NY,BGM,Delaware,36025,E,cc,-74.9664,42.1982
NY,BUF,Genesee,36037,E,ww,-78.1936,43.001
NY,ALY,Hamilton,36041,E,ee,-74.4974,43.6611
NY,BUF,Lewis,36049,E,cc,-75.4488,43.7847
NY,BUF,Livingston,36051,E,ww,-77.7754,42.728
NY,BGM,Madison,36053,E,cc,-75.6697,42.9129
NY,ALY,Montgomery,36057,E,ee,-74.4397,42.9023
NY,BGM,Onondaga,36067,E,cc,-76.1946,43.0058
NY,BUF,Ontario,36069,E,ww,-77.2998,42.8529
NY,OKX,Orange,36071,E,se,-74.3056,41.4022
NY,BGM,Otsego,36077,E,cc,-75.0326,42.6338
NY,OKX,Putnam,36079,E,se,-73.7495,41.4267
NY,OKX,Rockland,36087,E,se,-74.0241,41.1529
NY,ALY,Schoharie,36095,E,ec,-74.4421,42.5882
NY,BGM,Schuyler,36097,E,cc,-76.8752,42.3938
NY,BGM,Seneca,36099,E,cc,-76.8237,42.781
NY,BGM,Steuben,36101,E,cc,-77.3838,42.2678
NY,BGM,Sullivan,36105,E,cc,-74.7681,41.7164
NY,BGM,Tioga,36107,E,cc,-76.3063,42.1703
NY,BGM,Tompkins,36109,E,cc,-76.4737,42.452
NY,BUF,Wyoming,36121,E,ww,-78.2245,42.7023
NC,AKQ,Hertford,37091,E,ne,-76.7495,36.3111
NC,ILM,New Hanover,37129,E,se,-77.8921,34.1047
,,,,,,,
NC,AKQ,Pasquotank,37139,E,ne,-76.2867,36.2974
,,,,,,,
NC,ILM,Pender,37141,E,se,-77.907,34.5255
NY,BUF,Niagara,36063,E,ww,-78.7427,43.2011
NY,BUF,Wayne,36117,E,ww,-77.0292,43.1566
NY,BUF,Oswego,36075,E,cc,-76.1412,43.4261
NY,BUF,Orleans,36073,E,ww,-78.2312,43.2522
NY,BUF,Monroe,36055,E,ww,-77.6958,43.1464
,,,,,,,
NY,ALY,Washington,36115,E,ec,-73.4307,43.3137
NY,ALY,Warren,36113,E,ec,-73.846,43.561
NY,ALY,Fulton,36035,E,ee,-74.4222,43.1139
NY,BTV,Essex,36031,E,nn,-73.7727,44.1172
NY,BTV,Clinton,36019,E,nn,-73.6781,44.7462
NY,BTV,Franklin,36033,E,nn,-74.3038,44.5929
NY,BUFBGM,Cayuga,36011,E,cc,-76.5543,42.9169
NY,BGM,Oneida,36065,E,cc,-75.4359,43.2418
NY,ALY,Herkimer,36043,E,ee,-74.9626,43.4196
NY,ALY,Schenectady,36093,E,ec,-74.0585,42.8182
NY,ALY,Albany,36001,E,ec,-73.9735,42.6002
NY,ALY,Greene,36039,E,ec,-74.1227,42.2766
NY,ALY,Ulster,36111,E,ec,-74.2585,41.8881
NY,ALY,Dutchess,36027,E,ec,-73.7428,41.7652
NY,ALY,Columbia,36021,E,ec,-73.6318,42.2501
NY,ALY,Rensselaer,36083,E,ec,-73.5097,42.7111
NY,ALY,Saratoga,36091,E,ec,-73.8639,43.1074
NY,BTV,St. Lawrence,36089,E,nn,-75.0625,44.4921
NY,OKX,Nassau,36059,E,se,-73.5885,40.7411
NY,BUF,Chautauqua,36013,E,ww,-79.3664,42.2282
NY,OKX,Suffolk,36103,E,se,-72.8573,40.878
NC,AKQ,Perquimans,37143,E,ne,-76.4419,36.2069
,,,,,,,
NY,OKX,Kings,36047,E,se,-73.9472,40.6447
NY,BUF,Jefferson,36045,E,cc,-75.9102,44.0409
NY,BUF,Erie,36029,E,ww,-78.7308,42.7621
SC,CHS,Beaufort,45013,E,se,-80.6934,32.3568
OH,ILN,Adams,39001,E,sc,-83.472,38.8457
OH,IWX,Allen,39003,E,wc,-84.1057,40.7715
OH,CLE,Ashland,39005,E,nc,-82.2707,40.846
OH,RLX,Athens,39009,E,se,-82.0452,39.3337
OH,ILN,Auglaize,39011,E,wc,-84.2217,40.5609
OH,PBZ,Belmont,39013,E,ec,-80.9885,40.0158
OH,ILN,Brown,39015,E,sw,-83.868,38.9344
OH,ILN,Butler,39017,E,sw,-84.5755,39.4386
OH,PBZ,Carroll,39019,E,ec,-81.0897,40.5796
OH,ILN,Champaign,39021,E,wc,-83.7696,40.1377
OH,ILN,Clark,39023,E,wc,-83.7835,39.9168
OH,CLE,Wyandot,39175,E,nw,-83.3044,40.8424
OH,ILN,Clinton,39027,E,sw,-83.8084,39.415
OH,PBZ,Columbiana,39029,E,ec,-80.7775,40.7686
OH,PBZ,Coshocton,39031,E,ec,-81.92,40.3017
OH,CLE,Crawford,39033,E,nc,-82.9197,40.8509
OH,ILN,Darke,39037,E,wc,-84.6193,40.1333
OH,IWX,Defiance,39039,E,nw,-84.4906,41.3239
OH,ILN,Delaware,39041,E,cc,-83.0052,40.2785
OH,ILN,Fairfield,39045,E,cc,-82.6305,39.7516
OH,ILN,Fayette,39047,E,cc,-83.4561,39.5599
OH,ILN,Franklin,39049,E,cc,-83.0093,39.9696
OH,IWX,Fulton,39051,E,nw,-84.1301,41.6018
OH,RLX,Gallia,39053,E,se,-82.3169,38.8247
OH,ILN,Greene,39057,E,wc,-83.8898,39.6915
OH,PBZ,Guernsey,39059,E,ec,-81.4942,40.0521
OH,ILN,Hamilton,39061,E,sw,-84.5426,39.1954
OH,CLE,Hancock,39063,E,nw,-83.6665,41.0019
OH,ILN,Hardin,39065,E,wc,-83.6594,40.6615
OH,PBZ,Harrison,39067,E,ec,-81.0911,40.2938
OH,IWX,Henry,39069,E,nw,-84.0682,41.3339
OH,ILN,Hocking,39073,E,cc,-82.4792,39.497
OH,CLE,Holmes,39075,E,ne,-81.9294,40.5612
OH,CLE,Huron,39077,E,nc,-82.5984,41.1462
OH,RLX,Jackson,39079,E,se,-82.6184,39.0197
OH,PBZ,Jefferson,39081,E,ec,-80.761,40.385
OH,CLE,Knox,39083,E,nc,-82.4216,40.3988
OH,RLX,Lawrence,39087,E,se,-82.5368,38.5985
OH,ILN,Licking,39089,E,cc,-82.4835,40.0918
OH,ILN,Logan,39091,E,wc,-83.7658,40.3885
OH,CLE,Lorain,39093,E,nc,-82.1512,41.2955
OH,ILN,Madison,39097,E,cc,-83.3999,39.8941
OH,CLE,Mahoning,39099,E,ne,-80.7753,41.0146
OH,CLE,Marion,39101,E,nc,-83.1609,40.5873
OH,CLE,Medina,39103,E,ne,-81.8997,41.1176
OH,RLX,Meigs,39105,E,se,-82.0229,39.0821
OH,ILN,Mercer,39107,E,wc,-84.6293,40.54
OH,ILN,Miami,39109,E,wc,-84.2289,40.0534
OH,PBZ,Monroe,39111,E,ec,-81.0829,39.7274
OH,ILN,Montgomery,39113,E,wc,-84.2906,39.7545
OH,RLX,Morgan,39115,E,se,-81.8527,39.6203
OH,CLE,Morrow,39117,E,nc,-82.7941,40.524
OH,PBZ,Muskingum,39119,E,ec,-81.9444,39.9654
OH,PBZ,Noble,39121,E,ec,-81.4556,39.766
OH,IWX,Paulding,39125,E,wc,-84.5801,41.1166
OH,RLX,Perry,39127,E,se,-82.2361,39.7371
OH,ILN,Pickaway,39129,E,cc,-83.0243,39.642
OH,ILN,Pike,39131,E,sc,-83.0668,39.0774
OH,CLE,Portage,39133,E,ne,-81.1962,41.1676
OH,ILN,Preble,39135,E,wc,-84.6481,39.7416
OH,IWX,Putnam,39137,E,wc,-84.1317,41.0221
OH,CLE,Richland,39139,E,nc,-82.5365,40.7747
OH,ILN,Ross,39141,E,sc,-83.057,39.3376
OH,ILN,Scioto,39145,E,sc,-82.9928,38.804
OH,CLE,Seneca,39147,E,nw,-83.1277,41.1239
OH,ILN,Shelby,39149,E,wc,-84.2048,40.3315
OH,CLE,Stark,39151,E,ne,-81.3659,40.8138
OH,CLE,Summit,39153,E,ne,-81.5321,41.1259
OH,CLE,Trumbull,39155,E,ne,-80.7604,41.3174
OH,PBZ,Tuscarawas,39157,E,ec,-81.4738,40.441
OH,ILN,Union,39159,E,cc,-83.3715,40.2995
OH,IWX,Van Wert,39161,E,wc,-84.5861,40.8554
OH,RLX,Vinton,39163,E,se,-82.4854,39.251
OH,ILN,Warren,39165,E,sw,-84.1668,39.4277
OH,RLX,Washington,39167,E,se,-81.4953,39.4553
OH,CLE,Wayne,39169,E,ne,-81.8883,40.8289
OH,IWX,Williams,39171,E,nw,-84.5882,41.5603
OH,CLE,Wood,39173,E,nw,-83.623,41.3617
OH,ILN,Clermont,39025,E,sw,-84.1522,39.0476
OH,ILN,Highland,39071,E,sc,-83.6009,39.1848
OH,CLE,Lucas,39095,E,nw,-83.6586,41.62
OH,CLE,Ottawa,39123,E,nw,-83.1467,41.5381
OH,CLE,Geauga,39055,E,ne,-81.1786,41.4995
OH,CLE,Lake,39085,E,ne,-81.237,41.6968
OH,CLE,Sandusky,39143,E,nw,-83.145,41.3565
OH,CLE,Ashtabula,39007,E,ne,-80.7485,41.7074
OH,CLE,Cuyahoga,39035,E,ne,-81.6587,41.4243
OH,CLE,Erie,39043,E,nc,-82.6178,41.3635
OK,OUN,Blaine,40011,C,nw,-98.4335,35.8752
OK,OUN,Bryan,40013,C,se,-96.26,33.9623
OK,OUN,Caddo,40015,C,sw,-98.3751,35.1744
OK,OUN,Canadian,40017,C,cc,-97.9825,35.5425
OK,OUN,Carter,40019,C,ss,-97.2858,34.2509
OK,TSA,Cherokee,40021,C,ec,-94.9997,35.9066
OK,TSA,Choctaw,40023,C,se,-95.5521,34.0265
OK,AMA,Cimarron,40025,C,pa,-102.5178,36.7483
OK,OUN,Cleveland,40027,C,cc,-97.3271,35.2036
OK,OUN,Coal,40029,C,se,-96.2979,34.5882
OK,OUN,Comanche,40031,C,sw,-98.4717,34.6621
OK,OUN,Cotton,40033,C,sw,-98.3721,34.2902
OK,TSA,Craig,40035,C,ne,-95.2086,36.7617
OK,TSA,Creek,40037,C,ne,-96.3709,35.9027
OK,OUN,Custer,40039,C,ww,-99.0015,35.6389
OK,TSA,Delaware,40041,C,ne,-94.8027,36.4082
OK,OUN,Dewey,40043,C,nw,-99.008,35.9877
OK,OUN,Ellis,40045,C,nw,-99.7546,36.2184
OK,OUN,Garfield,40047,C,nn,-97.7828,36.379
OK,OUN,Garvin,40049,C,ss,-97.3093,34.7045
OK,OUN,Grady,40051,C,cc,-97.884,35.017
OK,OUN,Grant,40053,C,nn,-97.7861,36.7961
OK,OUN,Greer,40055,C,sw,-99.5609,34.9357
OK,OUN,Harmon,40057,C,sw,-99.8463,34.7441
OK,OUN,Harper,40059,C,nw,-99.6673,36.7887
OK,TSA,Haskell,40061,C,se,-95.1166,35.2248
OK,OUN,Hughes,40063,C,se,-96.2502,35.0484
OK,OUN,Jackson,40065,C,sw,-99.4148,34.588
OK,OUN,Jefferson,40067,C,ss,-97.8359,34.1111
OK,OUN,Johnston,40069,C,se,-96.6606,34.3165
OK,OUN,Kay,40071,C,nn,-97.1439,36.818
OK,OUN,Kingfisher,40073,C,cc,-97.9421,35.9454
OK,OUN,Kiowa,40075,C,sw,-98.9808,34.9163
OK,OUN,Woodward,40153,C,nw,-99.265,36.4227
OK,TSA,Le Flore,40079,C,se,-94.7035,34.9001
OK,OUN,Lincoln,40081,C,cc,-96.8809,35.703
OK,OUN,Logan,40083,C,cc,-97.4434,35.9194
OK,OUN,Love,40085,C,ss,-97.2442,33.9499
OK,OUN,McClain,40087,C,cc,-97.4436,35.0087
OK,SHV,McCurtain,40089,C,se,-94.7712,34.115
OK,TSA,McIntosh,40091,C,se,-95.6668,35.3737
OK,OUN,Major,40093,C,nw,-98.536,36.3116
OK,OUN,Marshall,40095,C,se,-96.769,34.0245
OK,TSA,Mayes,40097,C,ne,-95.2309,36.3018
OK,OUN,Murray,40099,C,ss,-97.0679,34.4823
OK,TSA,Muskogee,40101,C,ec,-95.3794,35.6161
OK,OUN,Noble,40103,C,nn,-97.2306,36.3886
OK,TSA,Nowata,40105,C,ne,-95.6174,36.7985
OK,TSA,Okfuskee,40107,C,ec,-96.3228,35.4655
OK,OUN,Oklahoma,40109,C,cc,-97.4072,35.5515
OK,TSA,Okmulgee,40111,C,ne,-95.9643,35.6467
OK,TSA,Osage,40113,C,ne,-96.3984,36.6292
OK,TSA,Ottawa,40115,C,ne,-94.8105,36.8355
OK,TSA,Pawnee,40117,C,ne,-96.6993,36.3169
OK,OUN,Payne,40119,C,cc,-96.9757,36.0773
OK,TSA,Pittsburg,40121,C,se,-95.7484,34.9239
OK,OUN,Pontotoc,40123,C,ec,-96.6844,34.7281
OK,OUN,Pottawatomie,40125,C,cc,-96.9483,35.2068
OK,TSA,Pushmataha,40127,C,se,-95.3758,34.4162
OK,OUN,Roger Mills,40129,C,ww,-99.6957,35.6883
OK,TSA,Rogers,40131,C,ne,-95.6044,36.3716
OK,OUN,Seminole,40133,C,ec,-96.6156,35.1674
OK,TSA,Sequoyah,40135,C,ec,-94.7549,35.4953
OK,OUN,Stephens,40137,C,ss,-97.8514,34.4856
OK,AMA,Texas,40139,C,pa,-101.49,36.7479
OK,OUN,Tillman,40141,C,sw,-98.9242,34.3728
OK,TSA,Tulsa,40143,C,ne,-95.9414,36.1211
OK,TSA,Wagoner,40145,C,ne,-95.5212,35.9609
OK,TSA,Washington,40147,C,ne,-95.9044,36.7152
OK,OUN,Washita,40149,C,ww,-98.9923,35.2904
OK,OUN,Woods,40151,C,nw,-98.8651,36.7669
OK,TSA,Latimer,40077,C,se,-95.2504,34.8761
OK,TSA,Adair,40001,C,ne,-94.6587,35.8839
OK,OUN,Alfalfa,40003,C,nw,-98.324,36.731
OK,OUN,Atoka,40005,C,se,-96.0378,34.3737
OK,AMA,Beaver,40007,C,pa,-100.4767,36.7497
OK,OUN,Beckham,40009,C,ww,-99.682,35.2687
OR,BOI,Harney,41025,P,se,-118.9679,43.064
OR,BOI,Baker,41001,P,ne,-117.6753,44.7092
OR,PDT,Deschutes,41017,P,cc,-121.2279,43.9149
OR,PDT,Jefferson,41031,P,cc,-121.1754,44.6294
OR,BOI,Malheur,41045,MP,se,-117.6231,43.1934
OR,PDT,Union,41061,P,ne,-118.009,45.3104
OR,PDT,Wheeler,41069,P,ne,-120.0275,44.7261
OR,PQR,Lane,41039,P,ww,-122.847,43.9386
OR,PQR,Tillamook,41057,P,nw,-123.7086,45.463
OR,PQR,Clatsop,41007,P,nw,-123.6547,45.9895
OR,PQR,Columbia,41009,P,nw,-123.0881,45.9439
OR,PQR,Washington,41067,P,nw,-123.0985,45.5601
OR,PQR,Yamhill,41071,P,nw,-123.3081,45.2326
OR,PQR,Marion,41047,P,nw,-122.5826,44.9035
OR,PQR,Linn,41043,P,nw,-122.5342,44.4886
OR,PQR,Hood River,41027,P,nw,-121.6512,45.519
OR,PQR,Polk,41053,P,nw,-123.4134,44.9034
OR,PQR,Benton,41003,P,ww,-123.4292,44.4922
OR,MFR,Jackson,41029,P,sw,-122.7284,42.4321
OR,MFR,Josephine,41033,P,sw,-123.5555,42.3654
OR,MFR,Klamath,41035,P,sc,-121.6501,42.6863
OR,PDT,Crook,41013,P,cc,-120.3566,44.1422
OR,MFR,Lake,41037,P,sc,-120.3874,42.7934
OR,PDT,Morrow,41049,P,ne,-119.5843,45.4188
OR,PDT,Grant,41023,P,cc,-119.0074,44.4912
OR,PDT,Wallowa,41063,P,ne,-117.1811,45.5798
OR,PDT,Umatilla,41059,P,ne,-118.7369,45.5919
OR,PQR,Multnomah,41051,P,nw,-122.4157,45.5469
OR,PQR,Clackamas,41005,P,nw,-122.2214,45.1887
OR,PDT,Gilliam,41021,P,nc,-120.2109,45.378
OR,PDT,Sherman,41055,P,nc,-120.6894,45.4052
OR,PDT,Wasco,41065,P,nc,-121.1682,45.16
OR,MFR,Coos,41011,P,sw,-124.0594,43.1739
OR,PQR,Lincoln,41041,P,ww,-123.8668,44.6421
OR,MFR,Douglas,41019,P,sw,-123.1662,43.2796
OR,MFR,Curry,41015,P,sw,-124.1567,42.4578
PA,CTP,Adams,42001,E,sc,-77.2179,39.8715
PA,PBZ,Allegheny,42003,E,sw,-79.9812,40.4688
PA,PBZ,Armstrong,42005,E,wc,-79.4645,40.8125
PA,PBZ,Beaver,42007,E,ww,-80.3493,40.6823
PA,CTP,Bedford,42009,E,sc,-78.4902,40.0066
PA,CTP,Blair,42013,E,cc,-78.3486,40.4813
PA,BGM,Bradford,42015,E,ne,-76.5157,41.7886
PA,PBZ,Butler,42019,E,wc,-79.913,40.9117
PA,CTP,Cambria,42021,E,cc,-78.7136,40.4954
PA,CTP,Cameron,42023,E,nc,-78.2038,41.4368
PA,PBZ,Clarion,42031,E,wc,-79.421,41.1925
PA,CTP,Clearfield,42033,E,cc,-78.4741,41.0002
PA,CTP,Columbia,42037,E,cc,-76.4052,41.0486
PA,CLE,Crawford,42039,E,nw,-80.1063,41.6848
PA,CTP,Cumberland,42041,E,sc,-77.2651,40.1637
PA,CTP,Dauphin,42043,E,sc,-76.7793,40.4155
PA,CTP,Elk,42047,E,nc,-78.6492,41.4252
PA,PBZ,Forest,42053,E,nw,-79.2361,41.5132
PA,CTP,Franklin,42055,E,sc,-77.7212,39.9275
PA,CTP,Fulton,42057,E,sc,-78.1124,39.9255
PA,PBZ,Greene,42059,E,sw,-80.2229,39.8538
PA,CTP,Huntingdon,42061,E,cc,-77.9812,40.417
PA,PBZ,Indiana,42063,E,wc,-79.0875,40.6521
PA,PBZ,Jefferson,42065,E,wc,-78.9995,41.1281
PA,CTP,Juniata,42067,E,cc,-77.402,40.5311
